indType,Property_Category,namCondominium,District,Street_name,property_subcategory,numNumber,Built_up_area,Area_total,Bedroom,Bathroom,totalGarages,totalRooms,valSales,latitude,longitude,totalAccess,flgHighlight,Property tax,Condominium,prop_char_95
S,Casas,Moradas São Carlos II,Jardim Ipanema,AV. OTTO WERNER ROSEL,Condomínio,1111,52,100,2,1,1,2,209000,-21.98484,-47.93834,0,0,30,130,
S,Casas,,Vila Carmem,RUA RAFAEL ABREU SAMPAIO,Padrão,95,118.98,187.5,2,1,2,2,340000,-22.02589,-47.90903,3,0,,,
S,Terreno,,Recreio dos Bandeirantes,RUA TRABALHO COM FRATERNIDADE,Lote,0,,574.07,,,,,260000,-22.02245,-47.91236,2,0,,,
S,Casas,,Jardim Araucária,Rua Jaime Cordeiro,Padrão,235,98,195,2,1,3,2,285000,-21.97825,-47.94901,10,0,,,
S,Apartamentos,Edifício London Park,Recreio São Judas Tadeu,Avenida Gregório Aversa,Padrão,127,,49,2,1,1,2,265000,-22.03285,-47.87002,8,1,,0,49
S,Casas,,Vila Monteiro (Gleba I),Rua São Joaquim,Padrão,2255,123.64,161,3,2,2,4,380000,-22.00627,-47.88915,3,0,,,
S,Terreno,,Jardim das Torres Prolongamento,Rua Doutor Ivan Pinto de Campos,Padrão,,,257,,,,,124000,,,4,1,,,
S,Apartamentos,Condomínio Green View,Parque Faber Castell,Passeio das Palmeiras,Padrão,520,,59,2,2,1,3,380000,-22.01629,-47.91655,8,1,,320,59
S,Casas,Condomínio Faixa Azul,Residencial Samambaia,Av. AVENIDA PEDRO MUSZKAT,Condomínio,911,152,250, ,2,2,4,852000,-21.9637,-47.88915,36,1,,200,
S,Terreno,,Vila São José,Rua Hipólito José da Costa,Lote,180,0,350,,,,,192000,-22.00223,-47.87425,9,1,0,,
S,Apartamentos,Edifício Jardim das Torres ,Jardim das Torres,RUA DOUTOR ANTÔNIO STELLA MORUZZI,Padrão,300,,43,2,1,1,2,130000,-22.0335399,-47.911186,4,1,0,210,43
S,Casas,Condomínio Residencial Quebec,Condomínio Residencial Quebec,Avenida Professora Maria de Cresci Leopoldino,Condomínio,755,174,308,3,3,4,6,1200000,,,15,1,0,0,
S,Casas,,Parque Santa Mônica,Rua São Sebastião,Sobrado,3393,359.12,429,4,2,3,5,1100000,-22.01335,-47.90119,9,1,0,,
SL,Comercial,,Centro,RUA GENERAL OSÓRIO,Salão,1330,,208,,2,3,,1600000,-22.02157,-47.88656,36,1,280,,208
S,Apartamentos,Parque dos Manacás,Recreio São Judas Tadeu,Avenida Gregório Aversa,Padrão,371,,44,2,1,1,2,192000,,,15,1,40,232,44
S,Apartamentos,Edifício Turim,Vila Monteiro (Gleba I),Rua São Joaquim,Padrão,1885,,57.27,2,1,1,2,398300,-22.0097249,-47.8890844,7,1,0,209,57.27
S,Apartamentos,Edifício Turim,Vila Monteiro (Gleba I),Rua São Joaquim,Padrão,1885,,57.27,2,1,1,2,398300,-22.0097249,-47.8890844,7,1,0,209,57.27
S,Apartamentos,Edifício Turim,Vila Monteiro (Gleba I),Rua São Joaquim,Padrão,1885,,57.27,2,1,1,2,398300,-22.0097249,-47.8890844,4,1,0,209,57.27
SL,Casas,,Parque Industrial,Rua Rodolfo Luporini,Comercial,225,323,300,4,5,4,8,1064001,-21.9901833,-47.9010975,23,1,290,,
S,Casas,,Cidade Jardim,Rua das Orquídeas,Padrão,793,145.92,180,2,1,2,2,320000,-21.99724,-47.893,5,0,0,,
S,Casas,,Núcleo Residencial Silvio Vilari,Rua Vivaldo Lanzoni,Padrão,40,237,250,4,2,2,6,585000,-22.02681,-47.8927,4,0,,,
S,Casas,Condomínio Village Damha IV,VILLAGE DAMHA IV,Avenida Brasilino Damha,Padrão,750,180,299,3,4,2,6,1150000,-21.97528,-47.89265,10,0,,0,
S,Terreno,,Vila São José,Rua Hipólito José da Costa,Lote,0,,125,,,,,150000,-22.00218,-47.87497,3,0,,,
S,Apartamentos,Edifício Mont D'oro,Residencial Monsenhor Romeu Tortorelli,Avenida João Stella,Padrão,200,,42,2,1,1,2,180000,,,23,1,,233,42
S,Casas,,Jardim Tangará,Rua Ilton Resitano,Padrão,590,111,125,2,2,2,3,290000,-22.01046,-47.85811,23,1,0,,
S,Casas,,Planalto Paraíso,Rua São João Bosco,Padrão,772,120,150,2,2,2,2,310000,,,39,0,,,
S,Terreno,Condomínio Parque Faber IV,Parque Faber Castell,Passeio das Magnólias,Condomínio,1060,,313.5,,,,,370000,,,13,1,,0,
S,Apartamentos,Edifício sophia Jorge ,Jardim Lutfalla,Rua Cézar Ricomi,Padrão,230,,36.35,1,1,1,1,275000,-22.0052465,-47.8931405,14,1,0,276,36.35
S,Casas,,Jardim de Cresci,RUA ROSA CASSIM,Padrão,290,196,307.62,3,3,2,4,650000,-22.02864,-47.86177,23,1,,,
S,Casas,Moradas São Carlos III,Jardim Ipanema,AV. OTTO WERNER ROSEL,Condomínio,811,51.46,101.2,3,1,2,3,150000,-21.98484,-47.93834,45,1,,0,
S,Apartamentos,Parque Monte Europa,Recreio São Judas Tadeu,Avenida Gregório Aversa,Padrão,500,,46,2,1,1,2,160000,-22.0334045,-47.865737,15,1,0,0,46
S,Casas,Condomínio Village Saint Germain,Jardim Cardinalli,Rua Irmã Maria São Félix,Condomínio,23,104,130,3,2,,4,560000,-22.0240988,-47.8715677,23,1,0,381,
S,Casas,,Jardim Embaré,Rua Fortunato Dovigo,Padrão,1865,100,250,3,2,2,4,585000,-21.96284,-47.94202,56,1,0,,
S,Apartamentos,Parque dos Manacás,Recreio São Judas Tadeu,Avenida Gregório Aversa,Padrão,371,,44,2,1,1,2,230000,-22.03312,-47.86755,346,1,,0,44
S,Casas,Residencial Eldorado,Residencial Eldorado,Rua Miguel Petroni,Condomínio,4900,178.65,312,3,3,2,4,936000,-21.98957,-47.92169,23,1,164.8,580,
S,Casas,,Jardim Cruzeiro do Sul,Rua Allan Kardec,Padrão,295,64,191.39,2,1,2,2,373000,-22.03803,-47.89085,12,1,39,,
S,Casas,,PRESIDENTE COLLOR,RUA LUIZ MASCARIM,Padrão,336,127.71,149.94,3,2,2,3,215000,-22.06332,-47.89486,9,0,,,
S,Casas,,Jardim Beatriz,Rua Antônio Martines Carrera,Padrão,1124,177.7,250,4,4,2,5,580000,-22.03569,-47.90795,18,1,,,
S,Apartamentos,Edifício Portal do Sol,Recreio São Judas Tadeu,AV. GETÚLIO VARGAS,Padrão,2475,,50,2,1,1,2,266000,-22.0350361,-47.8680662,25,1,0,0,50
S,Apartamentos,Jose de Alencar ,Vila Costa do Sol,Rua José de Alencar,Kitnet,37,,35,1,1,,1,490000,-22.00286,-47.89073,14,1,0,0,35
S,Casas,,SANTA FELICIA,Rua Marcus Vinícius de Mello Moraes,Comercial,552,228,150,2,3,1,3,480000,,,13,1,0,,
S,Terreno,Residencial Samambaia,Residencial Samambaia,RUA DOUTOR JOSÉ ELIZIO DE OLIVEIRA LEITE,Condomínio,0,,295.13,,,,,230000,-21.95614,-47.8841,22,1,,0,
S,Casas,,Parque Belvedere,Rua Maria Broggio Asenha,Área de Lazer,2,128.46,518.5,1,2,5,2,426000,-21.99802,-47.87183,2,0,,,
S,Apartamentos,Ed. Unicco,Jardim Macarengo,Rua Adolfo Catani,Padrão,651,,40,1,1,1,1,250000,-22.0070149,-47.8915395,21,1,0,240,32
S,Casas,Moradas São Carlos I,Jardim Ipanema,AV. OTTO WERNER ROSEL,Condomínio,1455,100,,2,2,1,2,200000,-21.98484,-47.93834,16,1,0,125,
S,Apartamentos,Edifício Antonio Stella Moruzzi ,Cidade Jardim,AV. DAS GARDÊNIAS,Padrão,241,,81.83,2,1,1,2,240000,-21.9992483,-47.893749,30,0,,0,
S,Casas,,Conjunto Habitacional Dom Constantino Amstalden,Rua Hend Cury,Padrão,180,100,138,2,2,1,3,260000,-21.99324246,-47.8660476,31,0,,,
S,Casas,,Jardim Embaré,RUA LUIS PICON,Padrão,105,92.23,250,2,1,2,2,415000,-21.96909,-47.93323,20,0,0,,
S,Terreno,Condomínio Parque dos Pinheiros ,Parque dos Timburis,Rua Cremilde Zabotto Poianas,Condomínio,0,0,144,,,,,155000,-22.01855,-47.85985,29,0,,0,
S,Apartamentos,Parque Monte Everest ,Parque Fehr,Servidão de Passagem João Deriggi,Padrão,181,,50,2,1,1,2,192000,,,27,0,,187.44,50
S,Casas,Condomínio Parque Residencial Damha II,Parque Tecnológico Damha,RUA MIGUEL DAMHA,Condomínio,1400,470,1000,5,5,6,10,2900000,-21.96392,-47.89699,49,0,,1915,
S,Casas,Moradas São Carlos II,Jardim Ipanema,AV. OTTO WERNER ROSEL,Condomínio,1111,48,100,3,1,2,3,230000,-21.98484,-47.93834,41,0,0,130,
S,Apartamentos,Edifício Wady Cury,Cidade Jardim,Alameda dos Crisântemos,Padrão,90,,50,2,1,1,2,190000,-22.00069,-47.89922,23,0,,0,50
S,Casas,,Jardim Paraíso,RUA MAESTRO JOÃO SEPPE,Padrão,773,155,300,3,2,2,3,1000000,-22.01002,-47.90194,22,0,,,
S,Apartamentos,Edifício Torre di Itália,Centro,Rua Padre Teixeira,Padrão,2670,,74,3,2,1,4,550000,-22.01418,-47.88435,54,0,,550,74
S,Terreno,,Jardim Medeiros,Rua Mário Pinotti,Padrão,0,,285,,,,,120000,-22.037,-47.91736,16,0,0,,
S,Terreno,,Jardim das Torres Prolongamento,Rua NAIR APPARECIDA BRUNELLI TERRONI,Padrão,0,,253,,,,,120000,-22.03217,-47.91919,15,0,0,,
S,Casas,Condomínio Village Damha III,Jardim Jóckei Club A,Rua Ray Wesley Herrick,Condomínio,1500,170,291.5,3,3,4,6,1150000,-21.98228,-47.89581,39,0,,0,
S,Apartamentos,Edifício Residencial Riverside,Jardim Gibertoni,Rua Humberto Manelli,Padrão,200,,47,2,2,1,3,277000,-22.0187394,-47.9062841,31,0,,0,
S,Terreno,,Conjunto Habitacional Planalto Verde,Rua Pastor José Fernandes Vieira,Lote,,,175.13,,,,,76000,,,10,0,0,,
S,Casas,,Vila Boa Vista 1,Rua Henrique Gregori,Padrão,600,125,250,2,1,2,2,500000,-22.03561,-47.90115,44,0,,,
S,Casas,,Jardim Nova São Carlos,RUA DOMINGOS BIBBO,Padrão,40,187,300,4,3,8,4,650000,-22.03032,-47.87324,40,0,0,,
S,Casas,Condomínio Parque Residencial Damha I ,Parque Tecnológico Damha,RUA MIGUEL DAMHA,Condomínio,1000,238,420,3,5,4,6,1800000,-21.96392,-47.89699,32,0,,0,
S,Casas,,DOURADINHO,Rua Doutor Paulo Botassi,Padrão,573,106,197.8,2,2,3,3,370000,-22.01711,-47.85033,20,0,0,,
S,Apartamentos,Edifício Itamaracá,Parque Santa Mônica,Avenida Tancredo de Almeida Neves,Padrão,457,,70,2,2,1,3,230000,-22.02074,-47.912,71,0,0,385,60.65
S,Casas,,MARIA STELLA FAGA,Rua Rafaela Saldanha,Padrão,69,100,1.84,2,2,4,3,280000,-22.00452,-47.85623,51,0,,,
S,Casas,,Jardim Embaré,Rua Orlando de Oliveira,Padrão,560,125,250,1,1,2,1,370000,-21.96834,-47.93896,30,0,,,
S,Casas,,Jardim Embaré,Rua Orlando de Oliveira,Padrão,485,200,250,4,5,4,7,850000,-21.96847,-47.93909,25,0,,,
S,Casas,,Vila Boa Vista,Rua Luiz Carlos de Arruda Mendes,Padrão,639,156.4,257.55,3,3,2,3,373000,-22.0257193,-47.9072362,24,0,,,
S,Casas,,MARIA STELLA FAGA,Rua Rafaela Saldanha,Padrão,70,120,190.9,2,2,2,3,380000,,,42,0,,,
S,Casas,Residencial Grand Ville,Planalto Paraíso,Rua Noêmia Sampaio de Souza,Condomínio,55,200,300,4,2,2,5,700000,-22.00546,-47.90963,29,0,0,0,
S,Terreno,Residencial Samambaia,Residencial Samambaia,Rua Joaquim de Meira Botelho,Condomínio,170,,250,,,,,170000,,,22,0,,0,
S,Casas,,Residencial Arcoville,Rua Roberto De Genova,Padrão,385,80.16,220,3,2,2,4,350000,-21.96066,-47.93188,37,0,,,
S,Apartamentos,Ed. Romeu Santini - Bloco 32,Romeu Santini,Rua Doutor Eufrauzino Moreira,Padrão,32,,54.41,2,1,1,2,140000,-22.02483,-47.91583,14,0,19.33,0,51.41
S,Casas,,Jardim Acapulco,Rua Ozigl de Camargo Lima,Padrão,105,187.95,250,2,1,4,2,480000,-21.99502,-47.91539,13,0,0,,
S,Apartamentos,Edifício First Class,Jardim Santa Paula,RUA OSCAR DE SOUZA GERIBELO,Padrão,635,,48.18,1,1,,1,165000,-21.99779,-47.89912,10,0,0,0,44.43
S,Casas,,Jardim Botafogo 1,RUA DOUTOR JOÃO DE OLIVEIRA,Padrão,495,241,680,3,4,2,5,900000,-22.0288,-47.90742,34,0,0,,
S,Casas,,Centro,RUA SÃO SEBASTIÃO,Comercial,1971,186,240,3,4,2,5,1150000,-22.01313,-47.89128,25,0,,,
S,Apartamentos,Edifício Torre di Itália,Centro,Rua Padre Teixeira,Padrão,2670,,74,3,2,1,4,570000,-22.01418,-47.88435,67,0,,0,74
S,Casas,,Jardim Cruzeiro do Sul,Rua Basílio Dibbo,Padrão,305,252,363,3,3,10,6,720000,-22.03793,-47.89007,30,0,,,
S,Terreno,Condomínio Parque Residencial Damha IV,Parque Tecnológico Damha,RUA MIGUEL DAMHA,Condomínio,1601,,366.83,,,,,478000,-21.96392,-47.89699,24,0,,450,
S,Comercial,Condomínio Tríade 2 - Edifício São Paulo ,Parque Faber Castell,Passeio dos Flamboyants,Sala,60,,38,,1,1,,250000,-22.01764,-47.91696,18,0,,567,38
S,Terreno,Condomínio Parque Residencial Damha IV,Parque Tecnológico Damha,RUA MIGUEL DAMHA,Condomínio,1601,,366.83,,,,,478000,-21.96392,-47.89699,17,0,0,450,
S,Terreno,,Jardim Santa Júlia,Rua JOÃO DE SANTI,Padrão,88,,250,,,,,230000,,,25,0,,,
S,Apartamentos,Spazio Mont Royal,Distrito Industrial Miguel Abdelnur,Av. DR. HEITOR JOSE REALI,Padrão,1031,,50,2,1,1,2,170000,,,27,0,,230,50
SL,Casas,,Jardim Araucária,Rua AMÉLIA CAMPITELLI MARCHETTI,Padrão,95,70,155.26,2,2,2,2,290000,-21.97371,-47.95009,288,0,15.79,,
S,Apartamentos,Edificio Residencial Conillera,Jardim São Carlos,Rua Geminiano Costa,Padrão,2080,,55,2,1,1,2,249000,-22.02047,-47.87708,70,0,49,220,49.22
S,Casas,,Residencial Astolpho Luiz do Prado,Rua Orlando Salvini,Padrão,119,150,167.2,3,1,2,3,430000,-21.99394,-47.85995,16,0,0,,
S,Rural,,Jardim Martinelli,AV. PACAEMBU,Área,0,,,,,,,146000,-22.03958,-47.89993,47,0,,,
SL,Casas,,Jardim Beatriz,Rua Batista Laura Ricetti,Padrão,824,178.35,255,3,3,2,5,373000,-22.0362,-47.9105918,253,0,45,,
S,Apartamentos,Edifício Itamaracá,Parque Santa Mônica,Avenida Tancredo de Almeida Neves,Padrão,457,,65,2,2,1,3,250000,-22.02074,-47.912,34,0,,360,65
S,Rural,,Jardim Martinelli,AV. PACAEMBU,Chácara,385,308.25,,3,3,2,3,850000,-22.03958,-47.89993,30,0,,,
S,Apartamentos,Residencial De Vitro,Recreio São Judas Tadeu,Avenida Gregório Aversa,Padrão,325,,54,2,1,1,2,140000,-22.03305,-47.86829,20,0,,0,54
S,Casas,,Vila Izabel,Rua José Corusse Carminé,Padrão,110,28,210,1,1,6,1,140000,-22.0351385,-47.8824646,21,0,,,
S,Terreno,,MONJOLINHO,Rodovia Engenheiro Thales de Lorena Peixoto Júnior,Padrão,,,250,,,,,190000,,,15,0,0,,
S,Casas,Moradas São Carlos II,Jardim Ipanema,AV. OTTO WERNER ROSEL,Condomínio,1111,52,100,2,2,2,3,270000,-21.98484,-47.93834,27,0,0,130,
S,Terreno,,Jardim Embaré,Rua Orlando de Oliveira,Padrão,485,,250,,,,,143000,-21.96847,-47.93909,35,0,0,,
S,Casas,,SANTA FELICIA,Rua Domingos Diegues,Padrão,436,125,150,2,1,2,2,320000,-21.99726,-47.91959,43,0,0,,
S,Terreno,,Centro,Rua Conde do Pinhal,Lote,3279,111.65,632.5,,,,,585000,-22.01767,-47.87828,34,0,0,,
S,Casas,,Centro,Rua Conde do Pinhal,Padrão,3263,255.87,522.5,3,2,2,4,1100000,-22.01765,-47.87839,37,0,0,,
S,Casas,,Jardim Bandeirantes,RUA ABRAHÃO JOÃO,Padrão,937,115,170,2,2,2,3,370000,-22.00096,-47.90998,26,0,0,,
S,Apartamentos,Edifício Green Tower ,Jardim Gibertoni,RUA CORONEL CARLOS SIMPLICIO RODRIGUES,Padrão,136,,50,2,2,1,3,260000,-22.01849,-47.90788,53,0,,180,50
S,Casas,Condomínio Parque Residencial Damha II,Parque Tecnológico Damha,RUA MIGUEL DAMHA,Condomínio,1400,510,1115,4,6,6,8,4500000,-21.96392,-47.89699,83,0,,0,
S,Terreno,,Cidade Aracy,Rua Lourenço Mascarin,Padrão,0,,250,,,,,139000,-22.061,-47.9051,27,0,,,
S,Apartamentos,Ed. Romeu Santini- Bloco 3,Romeu Santini,Rua Armando Albieri,Padrão,3,,55,2,1,1,2,139000,-22.02632,-47.91455,32,0,,0,
SL,Apartamentos,Edifício Due Residence,Jardim Bethânia,RUA ALDO POZZI,Padrão,1129,,50,2,2,1,3,375000,-22.01511,-47.90075,74,0,50,300,50
S,Comercial,,Centro,Rua Geminiano Costa,Prédio,542,,330,,2,,,2660000,-22.02078,-47.89212,33,0,0,,330
S,Apartamentos,MONTE DOS PINHEIROS ,Parque Faber Castell,Avenida dos Sanhaços,Padrão,901,,68,2,1,1,2,325000,-22.01498,-47.91203,46,0,0,0,56
S,Casas,,NSA APARECIDA,AV. LUIZ INÁCIO DA SILVA,Padrão,180,99,150,2,2,2,3,330000,-22.0223837,-47.8777651,69,0,0,,
S,Casas,Condomínio Faixa Azul,Residencial Samambaia,Av. AVENIDA PEDRO MUSZKAT,Condomínio,911,245,250,3,2,2,4,1090000,-21.96297,-47.88913,118,0,0,200,
S,Casas,,Jardim Santa Júlia,Rua DIRCEU VIDAL,Padrão,139,80,187.5,3,2,2,4,560000,,,53,0,0,,
S,Casas,,SANTA FELICIA,AV. BRUNO RUGGIERO FILHO,Padrão,717,125.05,69.08,2,1,1,2,360000,,,23,0,0,,
S,Terreno,,Jardim Embaré,RUA AGINALDO MELO NUNES,Padrão,0,,250,,,,,150000,-21.96485,-47.93929,23,0,,,
S,Casas,,Parque Delta,Rua Octávio Boro,Sobrado,83,190,150,3,2,2,4,520000,-21.99093,-47.89538,16,0,,,
S,Rural,,PARQUE TECNOLOGICO,Rod LUIZ AUGUSTO DE OLIVEIRA,Sítio,135,,,3,2,,3,1400000,,,28,0,,,
SL,Comercial,,Centro,RUA AQUIDABAN,Sala,217,,187,,3,,,640000,-22.02234,-47.89467,49,0,76,,200
S,Casas,,Jardim Tangará,Rua Pedro Monteleone,Padrão,11,149.43,138,3,2,2,4,350000,,,52,0,0,,
S,Casas,Condomínio Terra Nova,Jardim Ipanema,AV. OTTO WERNER ROSEL,Condomínio,777,135,143,3,2,2,3,426000,,,115,0,,250,
S,Terreno,,Jardim Letícia,Rua João Guastaldi,Padrão,206,,250,,,,,190000,,,34,0,,,
S,Terreno,,Residencial Arcoville,Avenida Um,Padrão,70,,260,,,,,160000,,,30,0,,,
S,Casas,,Parque Industrial,RUA EUGÊNIO GALUCCI,Padrão,175,18,300,2,2,2,3,525000,,,55,0,,,
S,Casas,,Cidade Aracy,Rua Pedro de Paula,Padrão,171,92,125,2,1,2,2,185000,,,30,0,,,
S,Terreno,,Jardim das Torres Prolongamento,Rua NAIR APPARECIDA BRUNELLI TERRONI,Padrão,1,,250,,,,,120000,-22.03166,-47.91866,7,0,0,,
S,Terreno,Condomínio Recanto do Sabiá ,Residencial Samambaia,Avenida Francisco Falvo,Condomínio,876,,250,,,,,200000,-21.9565,-47.88721,30,0,0,0,
S,Casas,,Jardim Social Belvedere,RUA AURÉLIO SANCHEZ,Padrão,542,120,138,2,1,2,2,185000,-22.04315,-47.90384,25,0,0,,
S,Casas,Condomínio Nossa Senhora de Nazaré,Jardim Cardinalli,Rua Pastor Cyrus Basset Dawsey,Condomínio,40,60,103,2,1,2,2,300000,-22.02291,-47.87302,81,1,70,120,
S,Apartamentos,Edifício Mirante Araucária ,Jardim Alvorada,Rua Luiz Barbosa de Campos,Padrão,142,,56,2,2,1,3,403000,-22.0100242,-47.9078969,449,0,0,0,56
S,Casas,,Cidade Aracy,Rua Hilário Martins Dias,Padrão,72,85,125,2,1,1,2,149000,-22.06076,-47.89882,14,0,,,
S,Apartamentos,Condomínio Green View,Parque Faber Castell,Passeio das Palmeiras,Padrão,520,,64,3,2,1,4,402800,-22.01629,-47.91655,49,0,,0,64
S,Casas,,Jardim Nova Santa Paula,AV. LIBERDADE,Padrão,151,176,300,3,2,2,4,595000,-21.99868,-47.89928,93,0,0,,
S,Casas,Condomínio Residencial Quebec,Condomínio Residencial Quebec,Avenida Professora Maria de Cresci Leopoldino,Condomínio,755,270,600,3,5,4,6,1600000,,,200,0,413,804,
S,Apartamentos,Edifício Residencial Antenor Guines,Jardim Macarengo,Rua Jacinto Favoreto,Padrão,394,,54,2,1,1,2,370000,-22.00613,-47.89409,35,0,0,250,
S,Casas,Condomínio Residencial Quebec,Condomínio Residencial Quebec,Avenida Professora Maria de Cresci Leopoldino,Condomínio,755,255,330,3,4,2,4,1400000,,,52,0,0,400,
S,Casas,,Jardim Brasil,RUA TOTÓ LEITE,Padrão,1671,120,270,2,1,2,2,540000,,,9,0,0,,
S,Casas,,Jardim Brasil,RUA TOTÓ LEITE,Padrão,1675,111.2,200,2,1,3,2,460000,,,8,0,0,,
S,Casas,,Jardim Brasil,RUA TOTÓ LEITE,Padrão,1657,108.78,396,3,1,2,3,800000,,,7,0,0,,
S,Casas,,Cidade Aracy,RUA ANÉSIO SILVA,Padrão,156,,250,2,2,2,3,250000,-22.05705,-47.91633,24,0,,,
S,Apartamentos,Edifício Monte Stella,Residencial Monsenhor Romeu Tortorelli,Avenida João Stella,Padrão,300,,60,2,1,1,2,212000,-22.0048495,-47.9234576,38,0,,200,40
S,Terreno,,Jardim São Carlos,Rua Treze de Maio,Padrão,2751,,1315,,,,,1599000,,,22,0,,,
S,Casas,,Centro,Rua Dona Eliza Botelho Maria Barros,Padrão,246,160,220,3,2,2,4,540000,,,33,0,,,
S,Casas,,Cidade Aracy,Rua Carlos Paschoalino,Padrão,170,64.68,125,2,1,2,2,190000,-22.05922,-47.90179,38,0,22.97,,
S,Casas,,JARDIM REAL,Rua Pascoal Mecca,Padrão,275,168,250,4,2,2,5,290000,-22.00127,-47.87198,14,0,0,,
SL,Comercial,,Jardim Jóckei Club A,Rua Rio Araguaia,Galpão,607,,1100.8,,2,,,1800000,-21.98119,-47.90082,54,0,376.5,,624
S,Apartamentos,Spazio Mont Royal,Distrito Industrial Miguel Abdelnur,Av. DR. HEITOR JOSE REALI,Padrão,1031,,46,2,1,1,2,150000,,,27,0,0,0,46
S,Casas,,Jardim Macarengo,Rua Doutor Orlando Damiano,Padrão,2083,83.6,258,2,1,2,2,500000,-22.0086,-47.89036,18,0,,,
S,Apartamentos,Edifício Parque das Arvores ,Parque Sabará,Rua Doutor Marino Costa Terra,Padrão,370,,57,2,1,1,2,213000,-22.0116,-47.86503,31,0,0,0,
S,Casas,,Vila Costa do Sol,RUA DONA ALEXANDRINA,Padrão,2591,60.75,60.75,1,1,1,1,150000,-22.00273,-47.89017,81,0,0,,
S,Apartamentos,Edifício Monte Nevada ,Vila Irene,Rua Doutor Joaquim Inácio de Moraes,Padrão,260,,45,2,1,1,2,170000,-22.03092,-47.88323,28,0,0,260,45
S,Apartamentos,Edifício Monte Nevada ,Vila Irene,Rua Doutor Joaquim Inácio de Moraes,Padrão,260,,45,2,1,1,2,170000,-22.03092,-47.88323,27,0,0,260,45
S,Casas,Residencial Grand Ville,Planalto Paraíso,Rua Noêmia Sampaio de Souza,Condomínio,55,200.97,338,4,3,2,5,750000,-22.00546,-47.90963,101,0,224.92,0,
S,Comercial,,Jardim Dona Francisca,Rua Martinho Arruda Botelho do Pinhal,Barracão,135,,150,2,2,,2,200000,-22.03085,-47.86631,15,0,,,150
S,Apartamentos,Edifício Itamaracá,Parque Santa Mônica,Avenida Tancredo de Almeida Neves,Padrão,457,,65,2,2,1,3,260000,-22.02074,-47.912,54,0,0,360,65
SL,Casas,Condomínio Village Damha I,Jardim Jóckei Club A,Rua Ray Wesley Herrick,Condomínio,1501,194,323,3,3,4,4,1170000,-21.97934,-47.89713,66,1,120,510,
S,Casas,,Jardim Acapulco,RUA MADRE TEREZA DE CALCUTA,Padrão,152,200,333.48,3,2,2,4,700000,-21.99557,-47.90938,56,0,,,
S,Casas,,VILA BELA VISTA,RUA JOAQUIM DA ROCHA MEDEIROS,Padrão,201,120,150,2,1,2,2,216000,-22.02681,-47.90959,77,0,0,,
S,Apartamentos,Residencial Monte Berlin,Jardim Embaré,Rua Ray Wesley Herrick,Padrão,5441,,,2,1,,2,190000,-21.9751112,-47.9332665,14,0,,260,42
S,Casas,,Jardim Ricetti,RUA TOTÓ LEITE,Padrão,2827,190,320,3,2,4,4,470000,-22.02743,-47.87968,84,0,0,,
S,Casas,,Jardim Embaré,Avenida Clemente Talarico,Padrão,630,200,500,3,3,8,5,590000,-21.96761,-47.94057,90,0,0,,
S,Casas,,Jardim Centenário,Rua Borba Gato,Padrão,238,112.06,165,2,1,1,2,260000,-21.99898,-47.90472,29,0,0,,
S,Terreno,Condomínio Parque Residencial Damha I ,Parque Tecnológico Damha,RUA MIGUEL DAMHA,Condomínio,1000,,443,,,,,700000,-21.96392,-47.89699,38,0,0,580,
S,Casas,,Jardim Jóckei Club A,Rua Rio Paranapanema,Padrão,606,108.4,165,3,3,2,5,450000,-21.97931,-47.90086,30,0,0,,
S,Apartamentos,Spazio Mont Royal,Distrito Industrial Miguel Abdelnur,Av. DR. HEITOR JOSE REALI,Padrão,1031,,56,2,1,1,2,150000,,,12,0,0,0,44
S,Casas,Village Paineiras ,Jardim Nossa Senhora Aparecida,Rua Aristides de Santi,Sobrado Condomínio,6,98.08,193.8,3,2,2,4,500000,-22.02631,-47.8708,59,0,,470,
S,Casas,,Jardim Paulista,Rua Floriano Peixoto,Padrão,122,120,296,2,1,3,2,380000,-22.02107,-47.89919,18,0,0,,
S,Casas,,Jardim Veneza,Rua Nelcio Torresam,Padrão,35,140,208,2,1,2,2,385000,-22.00821,-47.85844,28,0,0,,
S,Comercial,,CENTRO,RUA GENERAL OSÓRIO,Prédio,767,,256.4,,1,,,3195000,-22.02149,-47.89196,23,0,0,,583.81
SL,Comercial,,CENTRO,RUA RIACHUELO,Salão,662,,360,,3,6,,1400000,-22.01654,-47.89563,144,0,,,250
S,Apartamentos,Residencial Villa Real,Jardim Paraíso,Rua Princesa Isabel,Padrão,234,,67,2,2,2,3,553871,-22.0104151,-47.8989913,33,0,,0,67
S,Apartamentos,Residencial Villa Real,Jardim Paraíso,Rua Princesa Isabel,Padrão,234,,67,2,2,2,3,543871,-22.0104151,-47.8989913,19,0,,0,67
S,Apartamentos,Residencial Villa Real,Jardim Paraíso,Rua Princesa Isabel,Padrão,234,,67,2,2,2,3,533871,-22.0104151,-47.8989913,21,0,,0,67
S,Apartamentos,Residencial Villa Real,Jardim Paraíso,Rua Princesa Isabel,Padrão,234,,122,2,1,2,2,518871,-22.0104151,-47.8989913,30,0,,0,122
S,Casas,,Recreio dos Bandeirantes,Avenida Paulo de Arruda Correa da Silva,Sobrado,475,219.6,360,4,4,3,6,820000,-22.02355,-47.91336,34,0,,,
S,Casas,,Jardim Ricetti,Rua Vicente D'Aquino,Padrão,558,270,270,3,2,3,4,560000,-22.0258,-47.87754,59,0,0,,
S,Terreno,,ANTENOR GARCIA,RUA NOSSA SENHORA DA ROSA MÍSTICA,Padrão,728,,150,,,,,60000,-22.05138,-47.91644,19,0,,,
S,Terreno,,ANTENOR GARCIA,Rua José Geraldo Machado,Padrão,1295,150,150,,,,,60000,-22.05312,-47.91995,40,0,,,
S,Terreno,,Cidade Aracy,Rua José Freitas de Souza,Padrão,0,,250,,,,,160000,-22.05536,-47.9119,16,0,0,,
S,Terreno,,Jardim Macarengo,Rua Alfredo Lopes,Padrão,963,,484,,,,,540000,-22.00767,-47.8894,17,0,0,,
S,Casas,,SANTA FELICIA,Rua Joaquim Augusto Ribeiro de Souza,Padrão,808,150,150,4,2,2,5,380000,-21.9976361,-47.9219516,31,0,0,,
S,Casas,,Jardim Bicão,Rua José Laurimir Laurindo Leandro,Padrão,74,83.03,125,2,1,2,2,270000,,,56,0,,,
S,Casas,Moradas São Carlos II,Jardim Ipanema,AV. OTTO WERNER ROSEL,Condomínio,1111,98,140,2,2,2,3,280000,-21.98484,-47.93834,51,0,,130,
S,Casas,Condomínio Terra Nova,Jardim Ipanema,AV. OTTO WERNER ROSEL,Condomínio,777,102,140,3,2,2,4,380000,-21.98484,-47.93834,134,0,,0,
S,Apartamentos,Edifício Bosque das Araucárias,Jardim Alvorada,Rua Flauzino Marques,Padrão,439,,,2,2,2,3,400000,-22.00652,-47.90757,61,0,,0,54
S,Casas,,Jardim Bandeirantes,Rua José Palone,Padrão,65,103,300,3,1,1,3,370000,-22.00131,-47.90803,42,0,0,,
S,Casas,Condomínio Residencial Bosque de São Carlos ,Residencial Samambaia,Av. AVENIDA PEDRO MUSZKAT,Condomínio,1000,145,250,3,2,2,4,920000,-21.96297,-47.88913,141,0,,0,
S,Apartamentos,Edifício Mora D'ebre,Jardim Bethânia,Rua Paulino Botelho de Abreu Sampaio,Padrão,1238,,450,12,6,5,12,1277000,-22.00611,-47.90047,39,0,,0,520
S,Terreno,,Chácara Parque Club,Rua Paulo de Campos,Área,40,,1289.46,,,,,580000,-22.00528,-47.87535,32,0,0,,
S,Apartamentos,Edifico Heloisa ,Jardim São Carlos,RUA JESUÍNO DE ARRUDA,Padrão,1365,,73.72,2,1,1,2,200000,-22.01971,-47.89757,54,0,0,337.69,57
SL,Apartamentos,Ed. Romeu Santini- Bloco 1,Romeu Santini,Rua Aurea Jorge Vanelli,Padrão,1,,55,2,1,1,2,128000,,,175,0,21,156,55
S,Casas,,Vila Boa Vista 1,Rua Sebastião José Alexandre,Padrão,52,138.19,206.25,2,1,2,2,200000,-22.03627,-47.90628,21,0,,,
S,Apartamentos,Edifico Heloisa ,Jardim São Carlos,RUA JESUÍNO DE ARRUDA,Padrão,1365,,62,2,1,1,2,180000,-22.01971,-47.89757,42,0,,0,50
S,Apartamentos,Parque das Acácias ,Recreio São Judas Tadeu,Avenida Gregório Aversa,Padrão,627,,47.5,2,1,1,2,220000,-22.0337254,-47.8653803,53,0,0,200,
S,Casas,,Parque Industrial,Rua Itagibá Cardoso de Toledo,Padrão,137,80,140,2,1,2,2,235000,-21.98783,-47.90227,45,0,0,,
S,Rural,,Jardim Novo Horizonte,Rua Alessandro Di Salvo,Sítio,351,,,,,,,4100000,-22.03547,-47.8576,29,0,,,
S,Casas,Condomínio Parque Residencial Damha I ,Parque Tecnológico Damha,RUA MIGUEL DAMHA,Condomínio,1000,301,440,5,2,6,6,2000000,-21.96392,-47.89699,61,0,,662,
S,Apartamentos,Vila Verde Sabará (Apartamento),Parque Sabará,Rua Doutor Marino Costa Terra,Padrão,1000,,54,2,1,1,2,277000,-22.01269,-47.86259,45,0,0,0,
SL,Casas,,Jardim do Bosque,Luiz Gonzaga Grande Junior,Área de Lazer,137,70,253,1,1,6,1,320000,,,51,0,,,
S,Rural,Tibaia de São Fernando II,Tibaia de São Fernando II,Rua Lina Fabrri Caron,Chácara em condomínio,127,143.43,,2,1,4,2,860000,,,50,0,0,0,
S,Rural,Tibaia de São Fernando II,Tibaia de São Fernando II,Rua Lina Fabrri Caron,Chácara em condomínio,126,248.99,,5,4,5,7,1400000,,,39,0,0,0,
S,Casas,,Vila Marcelino,RUA RAIMUNDO CORREA,Sobrado,1886,218.3,181.5,3,2,2,4,550000,-22.03335,-47.8739,28,0,0,,
S,Casas,Condomínio Village Damha I,Jardim Jóckei Club A,Rua Ray Wesley Herrick,Condomínio,1501,215,384,3,4,6,6,1300000,-21.97934,-47.89713,188,0,197,600,
S,Casas,Condomínio Parque Faber III,Parque Faber Castell,Passeio das Magnólias,Condomínio,1041,210.4,356,3,4,,6,1380000,,,107,0,,0,
S,Casas,,Parque Santa Mônica,Avenida José Gonçalves Carneiro,Padrão,920,294.83,585,4,5,2,5,700000,,,33,0,0,,
S,Apartamentos,Residencial Millennium Park,VILA NERY,Rua Theodolina Modena Coca,Padrão,155,,,2,1,1,2,260000,-22.0119674,-47.8688308,70,0,41.7,185,48
S,Casas,Condomínio Village Damha II,Jardim Jóckei Club A,Rua Ray Wesley Herrick,Condomínio,1601,220,275,3,3,4,4,1280000,-21.97934,-47.89713,30,0,,482,
S,Terreno,Condomínio Faixa Azul,Residencial Samambaia,Av. AVENIDA PEDRO MUSZKAT,Condomínio,911,,250000,,,,,210000,-21.96297,-47.88913,66,0,0,200,
S,Terreno,Condomínio Faixa Azul,Residencial Samambaia,Av. AVENIDA PEDRO MUSZKAT,Condomínio,911,,220,,,,,210000,-21.96297,-47.88913,47,0,0,200,
S,Casas,Residencial Villeneuve,Jardim Jóckei Club A,Rua Ray Wesley Herrick,Condomínio,2816,156,240,3,3,2,6,900000,-21.98228,-47.89581,122,0,0,259,
S,Apartamentos,Condomínio Mont Park ,Jardim Jóckei Club A,Rua Ray Wesley Herrick,Padrão,475,,62,2,1,1,2,190000,-21.98461,-47.89507,53,0,,0,50
S,Casas,,Jardim Ricetti,RUA TOTÓ LEITE,Padrão,1296,235.65,360,4,2,2,5,480000,-22.02743,-47.87968,58,0,0,,
S,Casas,,Jardim Araucária,Rua Dirce Bellasalma Roiz,Padrão,124,100,200,2,2,3,2,280000,-21.97429,-47.94856,76,0,0,,
S,Apartamentos,Edifício Itamaracá,Parque Santa Mônica,Avenida Tancredo de Almeida Neves,Padrão,457,,65,2,3,1,4,330000,-22.02074,-47.912,21,0,0,360,65
S,Apartamentos,Edifício Madonna Littá,Jardim Paraíso,RUA ALICE J. DANNA JULIANA,Padrão,45,,64.86,2,2,1,3,285000,-22.00626,-47.90108,100,0,0,0,64.86
S,Casas,,RESIDENCIAL ITAMARATI,RUA MAURO TOMAZI,Padrão,682,160,250,3,3,3,4,560000,-21.99805,-47.85243,35,0,,,
S,Casas,,Parque Sisi,RUA JOSÉ TEIXEIRA,Padrão,580,99.23,125,1,1,1,1,200000,-22.00462,-47.92202,34,0,0,,
S,Apartamentos,Edifício Hyde Park,Jardim Ricetti,Rua Professor Paulo Monte Serrat,Padrão,540,,71.64,3,2,2,4,415000,-22.02918,-47.87698,127,0,0,0,
S,Casas,,Vila Boa Vista 1,Rua Antônio Frederico Ozanan,Padrão,1756,164.56,134.25,3,3,2,4,370000,-22.0339,-47.9073,55,0,,,
S,Apartamentos,Edifício Mirante Araucária ,Jardim Alvorada,Rua Luiz Barbosa de Campos,Padrão,142,,56,2,1,1,2,390000,-22.0100242,-47.9078969,54,0,,0,56
S,Casas,Condomínio Residencial Bosque de São Carlos ,Residencial Samambaia,Av. AVENIDA PEDRO MUSZKAT,Condomínio,1000,165.47,250,3,2,2,4,850000,-21.96297,-47.88913,206,0,,300,
S,Terreno,,Parque dos Passaros,Rua Roberto Colucci,Lote,,,308.31,,,,,214338,,,32,0,,,
S,Terreno,,Parque dos Passaros,Rua Roberto Colucci,Lote,,,300.9,,,,,209186,,,22,0,,,
S,Terreno,,Parque dos Passaros,Rua Roberto Colucci,Lote,,,348.94,,,,,242584,,,24,0,,,
S,Terreno,,Parque dos Passaros,Rua Roberto Colucci,Lote,,,286,,,,,198828,,,29,0,,,
S,Terreno,,Parque dos Passaros,Rua Pedro Teixeira Pinto,Lote,,,343.24,,,,,262407,,,19,0,,,
S,Apartamentos,Edifício Residencial Antenor Guines,Jardim Macarengo,Rua Jacinto Favoreto,Padrão,394,,54,2,1,1,2,378000,-22.00613,-47.89409,32,0,,0,54
S,Apartamentos,Edifício Residencial Antenor Guines,Jardim Macarengo,Rua Jacinto Favoreto,Padrão,394,,54,2,1,1,2,378000,-22.00613,-47.89409,32,0,,0,54
S,Apartamentos,MONTE DOS PINHEIROS ,Parque Faber Castell,Avenida dos Sanhaços,Padrão,901,,46,1,1,1,1,225000,-22.01498,-47.91203,46,0,,191,46
S,Terreno,Condomínio Residencial Bosque de São Carlos ,Residencial Samambaia,Av. AVENIDA PEDRO MUSZKAT,Padrão,1000,,250,,,,,265000,-21.96297,-47.88913,50,0,,0,
SL,Comercial,,Centro,Rua Padre Teixeira,Sala,1842,,130.72,,2,,,489000,-22.01427,-47.89258,34,0,130,,110
S,Casas,Condomínio Parque Residencial Damha II,Parque Tecnológico Damha,RUA MIGUEL DAMHA,Condomínio,1400,270,480,3,3,4,6,1800000,-21.96392,-47.89699,69,0,0,0,
S,Apartamentos,Edifício são Nicolau de Flue,Centro,Rua Major José Inácio,Padrão,1757,,242.43,3,4,3,6,1500000,,,64,0,,1458,242.43
S,Comercial,,Parque Industrial,RUA ERNESTINO BLOCK,Barracão,570,,300,,2,,,890000,-21.9886778,-47.8976963,47,0,,,250
S,Casas,Moradas São Carlos III,Jardim Ipanema,AV. OTTO WERNER ROSEL,Condomínio,811,92,100,3,1,2,3,275000,-21.98484,-47.93834,93,0,0,157,
S,Casas,,Parque Santa Mônica,Rua Madre Saint Bernard,Padrão,151,370,1050,4,6,3,7,1500000,-22.01199,-47.90272,56,0,,,
SL,Casas,,Vila São José,Rua Francisco Stella,Padrão,531,300,300,4,3,3,6,702000,-22.00247,-47.87513,124,0,114,,
S,Rural,Tibaia de São Fernando II,Tibaia de São Fernando II,Travessa Dois,Chácara em condomínio,117,171,,3,2,5,4,700000,,,51,0,0,0,
S,Casas,,Vila Brasília,Rua Peru,Sobrado,330,199.05,182,4,2,2,4,380000,-21.9970327,-47.8803568,49,0,0,,
S,Casas,,Vila Boa Vista 1,Rua Martim Luther King,Padrão,1490,152.14,183.49,3,2,2,3,380000,-22.03619,-47.90238,30,0,0,,
S,Casas,,BOA VISTA,Avenida Theodureto de Camargo,Padrão,352,90,140,2,1,2,2,350000,,,19,0,,,
S,Casas,Condomínio Village Damha III,Jardim Jóckei Club A,Rua Ray Wesley Herrick,Condomínio,1500,185,287,3,2,3,4,1200000,,,113,0,,0,
S,Casas,,Jardim Araucária,Rua Renato Gambini Mayer,Padrão,303,,140,2,2,2,3,373000,-21.9772742,-47.9487335,45,0,,,
S,Apartamentos,Residencial Beija Flor ,Cidade Jardim,Alameda das Violetas,Padrão,580,,55,2,2,1,3,350000,-21.9958238,-47.8931148,74,0,,150,55
SL,Casas,Condomínio Parque Residencial Damha I ,Parque Tecnológico Damha,RUA MIGUEL DAMHA,Condomínio,1000,300,500,4,4,4,8,4000000,-21.96392,-47.89699,72,0,,500,
S,Casas,,Jardim Araucária,Rua Benedito Aparecido dos Santos,Padrão,231,63,147,2,1,2,2,192000,-21.97369,-47.9485,71,0,0,,
SL,Apartamentos,VILA DAS FLORES ,Cidade Jardim,RUA BERNARDINO FERNANDES NUNES,Padrão,1317,,48,2,1,1,2,209000,-21.9927093,-47.891874,464,0,0,218,48
S,Casas,,NSA APARECIDA,RUA CAJUDY LINS BARROS WANDERLEY,Padrão,15,187,250,3,2,,4,530000,-22.0235,-47.87828,78,0,0,,
S,Apartamentos,MONTE DOS PINHEIROS ,Parque Faber Castell,Avenida dos Sanhaços,Padrão,901,,45.87,2,1,1,2,310000,-22.01498,-47.91203,47,0,,0,45.87
S,Casas,,Jardim Acapulco,RUA MADRE TEREZA DE CALCUTA,Padrão,256,142.62,268.85,3,2,2,4,700000,,,48,0,98.64,,
S,Casas,,Jardim Embaré,Rua Carlos Luporini,Padrão,447,222,250,3,4,4,4,590000,-21.9688,-47.93427,290,0,,,
S,Terreno,Condomínio Recanto do Sabiá ,Residencial Samambaia,Avenida Francisco Falvo,Condomínio,876,,250,,,,,180000,-21.9565,-47.88721,51,0,,0,
S,Casas,,CENTRO,RUA GENERAL OSÓRIO,Padrão,2284,142,132,3,1,3,4,600000,-22.021425,-47.8763176,69,0,0,,
S,Apartamentos,Condomínio Green View,Parque Faber Castell,Passeio das Palmeiras,Padrão,520,,,3,2,1,4,389000,-22.01629,-47.91655,130,0,0,0,64
S,Casas,,Jardim Araucária,Rua Pastor Cícero Guedes Ribeiro,Padrão,2,130,150,3,3,2,5,266000,-21.97355,-47.9482,61,0,0,,
S,Casas,,Jardim das Torres Prolongamento,Rua Luiz Corneta,Padrão,61,210,250,4,3,4,5,420000,-22.03165,-47.91718,65,0,0,,
S,Terreno,,Jardim Embaré,Rua Benedito Luiz Veltroni,Padrão,200,,250,,,,,160000,-21.96555,-47.93676,25,0,,,
S,Casas,,Portal do Sol,Avenida José Fortuna,Padrão,319,80,150,2,1,2,2,450000,-22.0250751,-47.8728254,71,0,,,
S,Terreno,,Jardim Embaré,Rua Benedito Luiz Veltroni,Padrão,198,,250,,,,,160000,-21.9656338,-47.9366642,20,0,,,
SL,Casas,,Vila Prado,RUA DOUTOR BERNARDINO DE CAMPOS,Padrão,902,80,100,2,1,1,2,230000,,,579,0,30,,
S,Casas,Moradas São Carlos II,Jardim Ipanema,AV. OTTO WERNER ROSEL,Condomínio,1111,100,150,3,2,2,4,320000,-21.98484,-47.93834,541,0,29.05,160,
S,Terreno,Condomínio Faixa Azul,Residencial Samambaia,Av. AVENIDA PEDRO MUSZKAT,Condomínio,911,,250,,,,,235000,-21.96297,-47.88913,47,0,,200,
S,Casas,,Jardim Medeiros,RUA ORLANDO PEDRESCHI,Padrão,218,90.47,138,2,1,2,2,290000,-22.0371,-47.91656,324,0,39,,
S,Rural,Condomínio Valparaíso,VALPARAISO,Rua Um,Chácara em condomínio,2,,,3,3,2,4,900000,,,66,0,0,0,
S,Casas,Condomínio Parque Residencial Damha IV,Parque Tecnológico Damha,RUA MIGUEL DAMHA,Sobrado Condomínio,1601,270.5,388.42,4,5,4,8,1910000,-21.96392,-47.89699,92,0,,0,
S,Casas,,Loteamento Albertini,TVS ANTÔNIO GUARANTINI,Padrão,70,150,295,4,6,2,8,600000,,,34,0,0,,
S,Terreno,Condomínio Monte das Araucárias ,SANTA FELICIA,AV. BRUNO RUGGIERO FILHO,Padrão,180,,307,,,,,330000,-22.01066,-47.91455,47,0,,0,
S,Apartamentos,Eco Residence  Jardim Gibertoni,Jardim Gibertoni,Rua Salesianos do Brasil,Padrão,105,,81,2,2,1,3,450000,-22.018854,-47.9072236,54,0,79.6,400,67.53
S,Casas,,Jardim Ipanema,AV. OTTO WERNER ROSEL,Padrão,219,89,150,2,1,2,2,280000,-21.98484,-47.93834,43,0,,,
S,Terreno,,Jardim Mercedes,RUA ANTENOR GASTALDI,Padrão,0,,250,,,,,213000,-22.03098,-47.87986,31,0,,,
S,Casas,,ROMEU TORTORELLI,Rua Luiz Carlos Bortolani,Padrão,65,80,160,2,1,2,3,299000,-22.009915,-47.9200458,47,0,,,
S,Terreno,,Parque Belvedere,RUA TADAO KAMICADO,Padrão,185,,585,,,,,250000,-21.99699,-47.87229,29,0,,,
S,Apartamentos,Edificio Spazio Mont Vernon,Jardim Brasil,Rua Dona Maria Izabel de Oliveira Botelho,Padrão,1000,,,2,1,1,2,200000,-22.0206389,-47.8787651,33,0,0,300,47
S,Rural,,ARACE DE SANTO ANTÔNIO,Avenida João Formenton,Chácara,0,80,,2,1,,2,380000,,,53,0,25,,
S,Casas,,Parque Santa Marta,Avenida Américo Walter Buchvieser,Padrão,405,333,372.6,4,3,4,5,895000,-21.99419,-47.90407,100,0,0,,
S,Apartamentos,Edificio Sthal Sodré,CENTRO,AV. DOUTOR CARLOS BOTELHO,Padrão,2275,,,3,3,1,4,730000,-22.01122,-47.88842,87,0,0,1100,129.32
S,Apartamentos,Edifício Juliana Maria Perez,Jardim Santa Paula,RUA OSCAR DE SOUZA GERIBELO,Padrão,64,,65,2,1,1,2,266000,-22.0022216,-47.9024855,55,0,,610,65
S,Apartamentos,Residencial Monte Berlin,Jardim Embaré,Rua Ray Wesley Herrick,Padrão,5441,,39,2,2,1,2,220000,-21.9751112,-47.9332665,54,0,,0,39
S,Casas,Moradas São Carlos I,Jardim Ipanema,AV. OTTO WERNER ROSEL,Condomínio,1455,82,160,3,2,,4,280000,-21.98484,-47.93834,63,0,,125,
S,Casas,,SANTA FELICIA,Rua Gastão Vieira,Padrão,1111,162.77,132,3,2,2,4,355000,-22.00628,-47.91921,109,0,0,,
S,Terreno,Condomínio Parque Faber IV,Parque Faber Castell,Passeio das Magnólias,Condomínio,1060,,324.5,,,,,429500,,,60,0,0,400,
S,Casas,Condomínio Terra Nova,Jardim Ipanema,AV. OTTO WERNER ROSEL,Condomínio,777,47,195,2,1,2,2,340000,-21.98484,-47.93834,112,0,,0,
S,Casas,,Cidade Aracy,RUA PROFESSORA JANETE MARIA MARTINELLI LIA,Padrão,103,55,125,2,1,2,2,180000,-22.0577646,-47.9188891,72,0,,,
S,Casas,Condomínio Recanto do Bosque ,Loteamento Municipal São Carlos 3,Rua Danilo Mic'Alli,Condomínio,50,80,232.37,3,2,3,4,580000,,,147,0,,0,
S,Industrial,,Jardim Maracanã,RUA PROFESSOR ANTÔNIO MUNHOZ,Galpão,138,,300,,,,,750000,-22.0380854,-47.8647255,34,0,,,300
S,Casas,Village Paineiras ,Jardim Nossa Senhora Aparecida,Rua Aristides de Santi,Condomínio,6,98.08,193.8,3,2,2,4,560000,-22.02631,-47.8708,77,0,0,470,
S,Apartamentos,Edifício London Park,Recreio São Judas Tadeu,Avenida Gregório Aversa,Padrão,127,,50,2,1,,2,224000,-22.03285,-47.87002,57,0,,0,50
S,Casas,,MIRANTE BELA VISTA,Rua José Ferrari,Padrão,135,166,274,2,2,4,2,400000,-22.04163,-47.90938,86,0,,,
S,Casas,,Vila Boa Vista 1,Rua Martim Luther King,Padrão,1745,82.57,125,2,2,2,2,260000,-22.038,-47.90076,108,0,,,
S,Terreno,,Cidade Aracy,Rua José Freitas de Souza,Lote,0,,125,,,,,65000,-22.05536,-47.9119,25,0,,,
S,Terreno,,Cidade Aracy,Rua Florisberto Aparecido da Silva,Padrão,0,,125,,,,,96000,-22.05858,-47.90893,18,0,,,
S,Casas,,JARDIM REAL,RUA CAETANO BARION,Padrão,290,216.83,155.7,2,2,2,3,511000,-22.00238,-47.87127,29,0,0,,
S,Terreno,,Salto do Monjolinho,Rua Tereza Sebastião da Silva,Padrão,0,,250,,,,,150000,,,32,0,0,,
S,Casas,,Vila Prado,Rua José Benetti,Padrão,736,131.48,500,2,1,3,2,370000,-22.02703,-47.90246,86,0,,,
S,Apartamentos,Edifício Maria José,Jardim Lutfalla,Rua Cézar Ricomi,Padrão,170,,45.25,1,1,1,1,380000,-22.0049351,-47.891595,52,0,0,300,45.25
S,Terreno,,Chácara Parque Club,Rua Paulo de Campos,Área,40,,1289.46,,,,,580000,-22.00555,-47.87649,52,0,,,
S,Casas,Condomínio Residencial Swiss Park,Parque Faber Castell,Passeio das Palmeiras,Condomínio,321,480,633,5,5,4,10,2990000,-22.01629,-47.91655,127,0,,0,
S,Casas,,Vila Monteiro (Gleba I),Rua São Joaquim,Padrão,175,137.44,284.2,2,1,1,2,405000,-22.02506,-47.88863,34,0,,,
S,Apartamentos,Residencial Carlos Magno( Rua Dom Pedro II),Vila Monteiro (Gleba I),RUA DOM PEDRO II,Padrão,235,,,3,2,1,4,235000,-22.0247,-47.88769,136,0,0,225,60
S,Casas,,Vila Monteiro (Gleba I),Rua São Joaquim,Padrão,203,154.91,282.75,2,1,1,2,405000,-22.02488,-47.88864,38,0,,,
S,Terreno,,Vila Monteiro (Gleba I),Rua São Joaquim,Padrão,185,,295.8,,,,,586000,-22.02506,-47.88863,23,0,,,
S,Apartamentos,Edifício Mont D'oro,Residencial Monsenhor Romeu Tortorelli,Avenida João Stella,Padrão,200,,45,2,1,1,2,205000,-22.00539,-47.92306,24,0,,0,45
S,Casas,,Cidade Aracy,RUA PEDRO APARECIDO GONZAGA,Padrão,399,100,250,3,2,3,4,200000,-22.0533,-47.90531,228,0,50,,
S,Casas,Condomínio Terra Nova,Jardim Ipanema,AV. OTTO WERNER ROSEL,Condomínio,777,90,140,3,2,2,3,400000,-21.98484,-47.93834,127,0,0,0,
S,Casas,Condomínio Faixa Azul,Residencial Samambaia,Av. AVENIDA PEDRO MUSZKAT,Condomínio,911,165,250,3,2,2,4,950000,-21.96297,-47.88913,76,0,,200,
SL,Casas,Condomínio Residencial Pantanal,Jardim Santa Paula,Avenida Eliza Gonzales Rabello,Condomínio,550,135,140,3,4,2,6,547200,-21.99672,-47.90195,179,0,140,200,
SL,Casas,Condomínio Residencial Pantanal,Jardim Santa Paula,Avenida Eliza Gonzales Rabello,Condomínio,550,135,140,3,4,2,6,547200,-21.99672,-47.90195,72,0,140,200,
SL,Casas,Condomínio Residencial Pantanal,Jardim Santa Paula,Avenida Eliza Gonzales Rabello,Condomínio,550,135,140,3,4,2,6,558600,-21.99672,-47.90195,46,0,140,200,
SL,Casas,Condomínio Residencial Pantanal,Jardim Santa Paula,Avenida Eliza Gonzales Rabello,Condomínio,550,135,140,3,4,2,6,595000,-21.99672,-47.90195,42,0,140,200,
SL,Casas,Condomínio Residencial Pantanal,Jardim Santa Paula,Avenida Eliza Gonzales Rabello,Condomínio,550,135,140,3,4,2,6,595000,-21.99672,-47.90195,38,0,140,200,
SL,Casas,Condomínio Residencial Pantanal,Jardim Santa Paula,Avenida Eliza Gonzales Rabello,Condomínio,550,135,140,3,4,2,6,558600,-21.99672,-47.90195,33,0,140,200,
SL,Casas,Condomínio Residencial Pantanal,Jardim Santa Paula,Avenida Eliza Gonzales Rabello,Condomínio,550,135,140,3,4,2,6,513000,-21.99672,-47.90195,123,0,140,200,
SL,Casas,Condomínio Residencial Pantanal,Jardim Santa Paula,Avenida Eliza Gonzales Rabello,Condomínio,550,135,140,3,4,2,6,513000,-21.99672,-47.90195,56,0,140,200,
SL,Casas,Condomínio Residencial Pantanal,Jardim Santa Paula,Avenida Eliza Gonzales Rabello,Condomínio,550,135,140,3,4,2,6,513000,-21.99672,-47.90195,66,0,140,200,
SL,Casas,Condomínio Residencial Pantanal,Jardim Santa Paula,Avenida Eliza Gonzales Rabello,Condomínio,550,135,140,3,4,2,6,530100,-21.99672,-47.90195,26,0,140,200,
SL,Casas,Condomínio Residencial Pantanal,Jardim Santa Paula,Avenida Eliza Gonzales Rabello,Condomínio,550,135,140,3,4,2,6,530100,-21.99672,-47.90195,50,0,140,200,
SL,Casas,Condomínio Residencial Pantanal,Jardim Santa Paula,Avenida Eliza Gonzales Rabello,Condomínio,550,135,140,3,4,2,6,538650,-21.99672,-47.90195,27,0,140,200,
SL,Casas,Condomínio Residencial Pantanal,Jardim Santa Paula,Avenida Eliza Gonzales Rabello,Condomínio,550,135,140,3,4,2,6,538650,-21.99672,-47.90195,52,0,140,200,
S,Terreno,,VILA MAX,Rua JOÃO ANTÔNIO SERAFIM MARINHEIRO,Padrão,1,,250,,,,,175000,-22.01104845,-47.87280677,30,0,0,,
S,Casas,,Jardim Macarengo,Rua Adolfo Catani,Padrão,1648,226,,3,3,2,5,720000,-22.00683,-47.88832,46,0,0,,
SL,Apartamentos,VILA DAS FLORES ,Cidade Jardim,RUA BERNARDINO FERNANDES NUNES,Padrão,1317,,47,2,1,1,2,266000,-21.9927093,-47.891874,269,0,,217,47
S,Apartamentos,Edifício Terrazza Bella Diocesi ,Vila Prado,Avenida José Pereira Lopes,Padrão,333,,44,2,2,1,3,300000,,,89,0,,270,44
S,Terreno,,Vila Costa do Sol,Rua José de Alencar,Lote,,,2293,,,,,2666719,,,80,0,,,
S,Apartamentos,Parque dos Manacás,Recreio São Judas Tadeu,Avenida Gregório Aversa,Padrão,371,,45,2,1,1,2,225000,-22.03312,-47.86755,34,0,,0,45
S,Casas,,RESIDENCIAL ITAMARATI,RUA MAURO TOMAZI,Padrão,660,188,250,3,3,2,3,480000,-21.9983691,-47.8524403,75,0,,,
S,Terreno,Condomínio Recanto do Sabiá ,Residencial Samambaia,Avenida Francisco Falvo,Padrão,876,,250,,,,,190000,,,42,0,,0,
S,Rural,,Vale Santa Felicidade,Al ALAMEDA DAS SIBIPIRUNAS,Chácara,60,,,,0,,,290000,,,50,0,,,
S,Terreno,,Jardim Ricetti,RUA MAJOR MANOEL ANTÔNIO DE MATTOS,Padrão,0,,330,,,,,380000,,,40,0,,,
SL,Casas,,Centro,RUA SETE DE SETEMBRO,Padrão,1542,272,320,6,4,4,6,640000,-22.01616,-47.89547,128,0,133,,
S,Casas,Moradas São Carlos II,Jardim Ipanema,AV. OTTO WERNER ROSEL,Condomínio,1111,100,56,2,2,,3,225000,-21.98484,-47.93834,105,0,0,130,
S,Apartamentos,Residencial Millennium Park,VILA NERY,Rua Theodolina Modena Coca,Padrão,155,,48,2,1,1,2,200000,-22.0119674,-47.8688308,107,0,,0,48
S,Casas,,Cidade Aracy,Rua Florisberto Aparecido da Silva,Sobrado,109,,125,2,2,3,2,270000,-22.05954,-47.90806,46,0,,,
S,Terreno,Condomínio Parque Residencial Damha I ,Parque Tecnológico Damha,RUA MIGUEL DAMHA,Condomínio,1000,,459,,,,,660000,-21.96392,-47.89699,36,0,,0,
S,Terreno,Condomínio Parque Residencial Damha I ,Parque Tecnológico Damha,RUA MIGUEL DAMHA,Condomínio,1000,,459,,,,,660000,-21.96392,-47.89699,35,0,,0,
S,Casas,Residencial Parque Fehr,Parque Fehr,Rua Antônio Estrozi,Sobrado Condomínio,316,180,240,4,4,2,7,1020000,-21.9795014,-47.9348231,85,0,,152,
S,Terreno,,Jardim Cruzeiro do Sul,Rua Paraná,Área,0,,145200,,,,,15000000,-22.03975,-47.89193,33,0,0,,
S,Casas,,Jardim Beatriz,Rua João Ribeiro de Souza Filho,Padrão,619,120,250,2,1,2,2,320000,-22.0372,-47.91059,75,0,,,
S,Casas,,Loteamento Habitacional São Carlos 1,RUA DOUTOR PROCÓPIO TOLEDO MALTA,Padrão,1251,103.63,200,2,1,2,2,270000,-21.99237,-47.92298,58,0,,,
S,Apartamentos,Edifício London Park,Recreio São Judas Tadeu,Avenida Gregório Aversa,Padrão,127,,50,2,1,1,2,270000,-22.03285,-47.87002,57,0,,250,50
S,Casas,,Jardim das Torres,Rua Doutor Gipsy Garcia Ferreira,Padrão,286,180,250,3,2,2,4,580000,-22.03109,-47.91444,139,1,0,,
S,Terreno,Condomínio Monte das Araucárias ,SANTA FELICIA,AV. BRUNO RUGGIERO FILHO,Condomínio,180,,300,,,,,320000,-22.01066,-47.91455,69,0,,,
S,Terreno,,Parque Novo Mundo,Rua Rudolf Jayme Langnor,Comercial,0,,934.5,,,,,426000,-22.06538,-47.88389,62,0,,,
S,Apartamentos,Edifício Mirante Araucária ,Jardim Alvorada,Rua Luiz Barbosa de Campos,Padrão,142,,50,2,1,2,2,340000,-22.0100242,-47.9078969,102,0,,0,50
SL,Apartamentos,Condomínio Mont Park ,Jardim Jóckei Club A,Rua Ray Wesley Herrick,Padrão,475,,50,2,1,1,2,150000,-21.98461,-47.89507,407,0,33,211.4,50
S,Casas,,JARDIM REAL,RUA MOISÉS JOÃO MUSSA,Padrão,226,80,125,2,1,1,2,210000,-22.00109,-47.87263,72,0,,,
S,Casas,,Jardim das Torres,Rua Doutor Gipsy Garcia Ferreira,Padrão,518,230,250,3,4,2,6,530000,-22.03223,-47.91262,18,0,0,,
S,Casas,,Jardim das Torres,Rua Doutor Gipsy Garcia Ferreira,Sobrado,508,237.15,250,3,3,4,4,650000,-22.03219,-47.91271,72,0,0,,
S,Terreno,Condomínio Monte das Araucárias ,SANTA FELICIA,AV. BRUNO RUGGIERO FILHO,Condomínio,180,,300.41,,,,,312000,-22.01066,-47.91455,56,0,0,0,
S,Apartamentos,Edifício Atacama,Jardim Lutfalla,RUA DOUTOR CARLOS DE CAMARGO SALLES,Padrão,414,,27,1,1,,1,240000,-22.00601,-47.89539,62,0,0,0,27
S,Rural,Condomínio Valparaíso,VALPARAISO,Rua Um,Chácara em condomínio,1,129.92,,3,4,2,4,1172000,-21.9321,-47.93451,51,0,0,0,
S,Casas,Moradas São Carlos II,Jardim Ipanema,AV. OTTO WERNER ROSEL,Condomínio,1111,65,100,2,2,2,3,265000,-21.98484,-47.93834,122,0,,130,
S,Apartamentos,Residencial Millennium Park,VILA NERY,Rua Theodolina Modena Coca,Padrão,155,,46,2,1,1,2,240000,-22.0119674,-47.8688308,30,0,,0,46
SL,Apartamentos,Edifico Heloisa ,Jardim São Carlos,RUA JESUÍNO DE ARRUDA,Padrão,1365,,55,2,1,1,2,159000,-22.01971,-47.89757,227,0,65,400,55
S,Casas,Condomínio Parque Residencial Damha I ,Parque Tecnológico Damha,RUA MIGUEL DAMHA,Condomínio,1000,450,598,5,6,6,10,3700000,-21.96392,-47.89699,66,0,,800,
S,Casas,,Jardim Munique,Rua Oswaldo Denari,Padrão,749,145,250,3,1,2,3,400000,-22.00099,-47.85752,42,0,,,
S,Apartamentos,Condomínio Mont Park ,Jardim Jóckei Club A,Rua Ray Wesley Herrick,Padrão,475,,38,1,1,1,1,140000,-21.98461,-47.89507,51,0,,0,38
S,Apartamentos,Edifício Victória Park,Parque Faber Castell,Passeio das Palmeiras,Padrão,659,,103,3,4,,6,855000,-22.01629,-47.91655,144,0,,0,103
S,Casas,,Vila Costa do Sol,Rua Rui Barbosa,Padrão,1962,129.65,389.58,2,1,3,2,586500,,,81,0,,,
S,Apartamentos,,Jardim Alvorada,Rua Doutor Domingos Faro,Padrão,102,,100,3,1,1,3,270000,,,189,0,,,100
S,Comercial,,Núcleo Residencial Silvio Vilari,Rua Gastão Vidigal,Galpão,400,,845.5,,0,,,650000,,,42,0,222.36,,100
S,Casas,,Cidade Aracy,AV. ARNOLDO ALMEIDA PIRES,Padrão,198,90,128.7,2,2,2,2,130000,,,54,0,0,,
S,Casas,,Parque Primavera,Rua José de Paula Lattanzio,Padrão,280,139.97,180,3,1,2,3,380000,-22.00842,-47.86729,63,0,0,,
S,Apartamentos,Residencial Bianchi,Parque Sabará,Rua Lourenço Inocentini,Padrão,613,,47.17,2,1,1,2,245000,-22.0102358,-47.8686002,43,0,0,142,47.17
SL,Casas,,Cidade Jardim,RUA DOS CRAVOS,Comercial,80,250,360,3,3,3,5,800000,-21.99744,-47.89495,111,0,192,,
S,Casas,,Conjunto Habitacional Santa Angelina,RUA RAUL GARCIA RODRIGUES,Padrão,188,110,138,2,1,2,2,220000,,,21,0,,,
S,Apartamentos,Edifício Mont D'oro,Residencial Monsenhor Romeu Tortorelli,Avenida João Stella,Padrão,200,,42,2,1,1,2,185000,-22.00539,-47.92306,20,0,,0,42
S,Casas,,Planalto Paraíso,Rua Manoel José Serpa,Sobrado,161,412,720,4,5,6,8,1600000,-22.00667,-47.90987,87,0,0,,
SL,Casas,,Jardim Embaré,Rua Orlando de Oliveira,Padrão,90,200,200,3,3,2,4,530000,-21.97176,-47.93553,299,0,130,,
S,Casas,Residencial Villagio Etna ,Jardim Cardinalli,Rua Pastor Cyrus Basset Dawsey,Condomínio,220,150,200,3,2,2,4,695000,-22.02291,-47.87302,90,0,,0,
S,Casas,,Vila Monteiro (Gleba I),Rua Enéas Camargo,Padrão,423,130,179,4,1,2,4,280000,-22.02757,-47.88039,23,0,,,
SL,Casas,,Conjunto Habitacional Dom Constantino Amstalden,Rua Hend Cury,Padrão,173,150,150,3,2,2,4,250000,,,697,0,,,
S,Casas,,ROMEU TORTORELLI,Rua Luiz Carlos Bortolani,Sobrado,64,119.5,135,2,1,2,2,435000,-22.00962,-47.92014,46,0,0,,
S,Casas,Condomínio Parque Residencial Damha IV,Parque Tecnológico Damha,RUA MIGUEL DAMHA,Condomínio,1601,221.3,384,3,3,4,6,1700000,-21.96392,-47.89699,57,0,,0,
S,Rural,Condomínio Valparaíso,RURAL,Rod SP 318,Chácara em condomínio,44,110,,2,2,2,4,1065000,,,52,0,222,0,
S,Terreno,,Jardim Santa Paula,RUA OSCAR DE SOUZA GERIBELO,Padrão,,,405,,,,,330000,-22.00003,-47.90126,55,0,,,
SL,Casas,,Jardim Cruzeiro do Sul,Rua Francisco Marigo,Padrão,1549,133.21,368,2,2,2,3,250000,-22.04879,-47.88577,299,0,83,,
SL,Casas,,Parque Santa Mônica,Rua Madre Saint Bernard,Padrão,383,400,600,4,4,6,6,1000000,-22.01323,-47.9027,179,0,,,
S,Casas,,SÃO JOÃO BATISTA,Rua Mariano Garcia Carrasco,Padrão,527,130,130,1,1,,1,250000,-22.00275,-47.87688,44,0,,,
S,Terreno,Condomínio Recanto do Sabiá ,Residencial Samambaia,Avenida Francisco Falvo,Condomínio,876,0,250,,,,,220000,-21.9565,-47.88721,36,0,0,0,
SL,Rural,,Broa,rua particular 16,Chácara,75,141,,3,1,,3,500000,,,125,0,177,,
SL,Casas,,Vila Boa Vista,Rua João Cristofaro dos Reis,Padrão,52,180,251.5,3,4,4,5,460000,-22.02546,-47.90478,258,0,90,,
S,Apartamentos,Edificio Spazio Mont Vernon,Jardim Brasil,Rua Dona Maria Izabel de Oliveira Botelho,Padrão,1000,,53,2,1,1,2,213000,,,153,0,69,310,48
S,Casas,,Parque Santa Mônica,Avenida José Gonçalves Carneiro,Padrão,280,305,810,4,6,5,7,2000000,-22.01543,-47.90845,52,0,,,
S,Casas,,Conjunto Habitacional Planalto Verde,Avenida Julio Francisco,Sobrado,165,175,121,3,3,1,4,320000,,,17,0,0,,
S,Apartamentos,Edifício Monte Dore,Jardim Paraíso,RUA MAESTRO JOÃO SEPPE,Duplex,303,,140,3,2,2,4,550000,-22.01402,-47.9019,52,0,,0,100
S,Casas,Condomínio Parque Residencial Damha III,Parque Tecnológico Damha,RUA MIGUEL DAMHA,Condomínio,800,224,427,3,5,4,6,1850000,-21.96392,-47.89699,144,0,,0,
S,Terreno,Condomínio Recanto do Sabiá ,Residencial Samambaia,Avenida Francisco Falvo,Condomínio,876,,250,,,,,185000,-21.9565,-47.88721,66,0,,0,
S,Terreno,,Jardim Embaré,ESTRADA MUNICIPAL SCA,Área,442,,34500,,,,,16500000,-21.97132,-47.9313,53,0,,,
S,Terreno,Condomínio Village Damha IV,VILLAGE DAMHA IV,Avenida Brasilino Damha,Condomínio,750,,275,,,,,320000,-21.97528,-47.89265,89,0,,0,
S,Casas,,Jardim Gibertoni,RUA HUMBERTO MANELLI,Padrão,75,161.85,250,3,3,,5,570000,-22.01895,-47.90652,154,0,0,,
S,Casas,,Planalto Paraíso,Rua Nestor de Campos,Padrão,246,178,360,3,2,4,4,620000,-22.00437,-47.91726,103,0,,,
S,Casas,,CENTRO,RUA SÃO SEBASTIÃO,Padrão,2657,133.15,200,3,1,,3,532000,-22.0133949,-47.892509,57,0,,,
S,Comercial,,Jardim Munique,Rua Oswaldo Denari,Barracão,700,,250,3,4,,3,600000,-22.00137,-47.8572,43,0,,,220
S,Casas,,AZULVILLE,Rua Professor Caio de Figueredo Silva,Padrão,65,100,150,2,1,2,2,280000,-22.0265783,-47.8680279,164,0,,,
S,Casas,Condomínio Parque Faber I,Parque Faber Castell,Alameda das Pitangueiras,Condomínio,10,395,740,4,3,6,6,2950000,-22.01571,-47.92174,49,0,,540,
S,Terreno,,Jardim São João Batista,RUA JOAQUIM DA CRUZ PENALVA,Padrão,,,125.11,,,,,126000,,,51,0,,,
S,Terreno,,Vila Brasília,Rua Bolívia,Padrão,,,142.14,,,,,143000,,,26,0,,,
S,Terreno,,Vila Brasília,RUA VENEZUELA,Padrão,,,145,,,,,145000,,,25,0,,,
S,Terreno,,Vila Brasília,Rua Costa Rica,Padrão,,,238.77,,,,,239000,,,17,0,,,
S,Terreno,,Vila Brasília,Rua Costa Rica,Padrão,,,240.38,,,,,241000,,,18,0,,,
S,Casas,Condomínio Faixa Azul,Residencial Samambaia,Av. AVENIDA PEDRO MUSZKAT,Padrão,911,168,250,3,3,2,4,1050000,-21.96297,-47.88913,130,0,,200,
S,Terreno,,Parque dos Timburis,AV. JOSÉ POIANAS,Lote,0,,287.81,,,,,195000,-22.01694,-47.85785,39,0,0,,
S,Casas,,SANTA FELICIA,Rua Francisco Lopes,Padrão,193,105,170,3,2,2,4,270000,-21.99641,-47.92183,564,0,56,,
S,Rural,,MONJOLINHO,Rodovia Engenheiro Thales de Lorena Peixoto Júnior,Área,248,,,,,,,210000,,,49,0,,,
S,Terreno,,MONJOLINHO,Rodovia Engenheiro Thales de Lorena Peixoto Júnior,Padrão,249,,886399.47,,,,,26300000,,,26,0,,,
S,Casas,Condomínio Residencial Swiss Park,Parque Faber Castell,Passeio das Palmeiras,Condomínio,321,485,980,4,3,4,7,4200000,-22.01629,-47.91655,96,0,,0,
S,Casas,,Vila Brasília,RUA GUATEMALA,Padrão,41,218,320,2,1,2,2,550000,-21.99727,-47.87973,92,0,,,
S,Casas,,Jardim Beatriz,Rua João Ribeiro de Souza Filho,Padrão,1415,110.15,150,2,2,2,3,320000,-22.03917,-47.90889,59,0,,,
S,Casas,,BOA VISTA,RUA DOUTOR JOÃO SABINO,Padrão,1408,100,125,2,1,2,2,350000,-22.03659,-47.90436,50,0,,,
S,Casas,,Vila Boa Vista 1,Rua Sebastião de Abreu Sampaio,Sobrado,1426,150,125,3,2,,4,400000,-22.03637,-47.90377,15,0,,,
S,Casas,,SANTA FELICIA,Rua Doutor Jonas Novaes,Padrão,720,140,150,3,2,2,4,350000,-22.0065069,-47.9159144,97,0,,,
S,Casas,Condomínio Parque Faber IV,Parque Faber Castell,Passeio das Magnólias,Condomínio,1060,264.37,302.5,3,6,4,6,1870000,,,116,0,,0,
S,Casas,,Jardim Bandeirantes,RUA ABRAHÃO JOÃO,Padrão,436,158,250,3,2,1,4,400000,-22.00302,-47.9049,54,0,,,
S,Casas,,Jardim de Cresci,RUA NEIDE SAMPAIO,Padrão,195,153.66,310.55,3,2,6,3,550000,-22.02924,-47.86391,92,0,,,
S,Casas,,BOA VISTA,RUA DOUTOR JOÃO SABINO,Padrão,1390,120,125,3,2,2,4,500000,-22.03626,-47.90449,207,0,0,,
S,Casas,,Cidade Aracy,RUA NATALINO SBAMPATO,Sobrado,1125,270,150,3,5,1,4,300000,-22.06434,-47.90013,16,0,,,
S,Terreno,,Jardim Alvorada,Rua Sebastião Ferraz Caldas,Lote,0,,287,,,,,270000,-22.01057,-47.90866,40,0,,,
S,Terreno,,Jardim Alvorada,Rua Sebastião Ferraz Caldas,Lote,0,,287,,,,,270000,-22.01057,-47.90866,25,0,,,
S,Terreno,,Jardim Alvorada,Rua Sebastião Ferraz Caldas,Lote,0,,287,,,,,270000,-22.01057,-47.90866,32,0,,,
S,Casas,,Vila Prado,AV. SALLUM,Padrão,1313,109,152.32,3,1,1,3,320000,-22.03237,-47.89662,43,0,,,
S,Apartamentos,Edifício Spazio Monte Azul,Distrito Industrial Miguel Abdelnur,Av. DR. HEITOR JOSE REALI,Padrão,1426,,60,2,1,1,2,165000,,,49,0,,0,48
S,Apartamentos,Edifício Ferreto,CENTRO,RUA RIACHUELO,Padrão,897,,38,1,1,1,1,290000,-22.01439,-47.89587,82,0,0,235,38
S,Apartamentos,MONTE DOS PINHEIROS ,Parque Faber Castell,Avenida dos Sanhaços,Padrão,901,,45.87,2,1,1,2,270000,-22.01498,-47.91203,82,0,,0,45.87
SL,Casas,,Centreville,Rua Antônio Rodrigues Cajado,Padrão,1383,150,100,3,2,2,4,410000,-22.01641,-47.88394,191,0,72,,
S,Terreno,,Salto do Monjolinho,4,Lote,,,250,,,,,180000,,,19,0,0,,
S,Apartamentos,Residencial Aline,Vila Pelicano,RUA ROBERTO SIMONSEN,Padrão,10,,50,2,1,1,2,258000,-22.02188,-47.89755,51,0,,230,50
S,Casas,,Jardim Paraíso,JOAQUIM RODRIGUES BRAVO,Kitnet,75,120,163.87,6,6,2,6,480000,-22.00872,-47.9005,45,0,,,
S,Apartamentos,Spazio Mont Royal,Distrito Industrial Miguel Abdelnur,Av. DR. HEITOR JOSE REALI,Padrão,1031,,48,2,1,1,2,160000,,,42,0,0,0,48
S,Terreno,,Jardim Paraíso,Rua Conselheiro Soares Brandão,Padrão,73,,440,,,,,290000,-22.00699,-47.90033,72,0,,,
SL,Casas,,Centreville,Rua Antônio Rodrigues Cajado,Padrão,1373,150,100,3,2,2,4,410000,-22.01652,-47.88394,174,0,72,,
S,Terreno,,Vila Monteiro (Gleba I),Rua São Paulo,Padrão,0,,138.7,,,,,372000,-22.02615,-47.88561,100,0,0,,
SL,Apartamentos,Parque dos Manacás,Recreio São Judas Tadeu,Avenida Gregório Aversa,Padrão,371,,55,2,1,1,2,230000,-22.03312,-47.86755,132,0,44,213,55
S,Apartamentos,Edifício Itamaracá,Parque Santa Mônica,Avenida Tancredo de Almeida Neves,Padrão,457,,59,2,2,1,3,260000,,,140,0,,0,59
S,Casas,,Jardim Cruzeiro do Sul,Avenida República do Líbano,Padrão,823,280,350,3,,2,3,450000,-22.04325,-47.8905,46,0,,,
S,Terreno,,Vila Costa do Sol,RUA DONA ALEXANDRINA,Comercial,0,,300,,,,,450000,-22.0033,-47.89005,65,0,,,
S,Terreno,,Vila Monteiro (Gleba I),Rua Enéas Camargo,Padrão,356,0,445.5,,,,,290000,-22.02775,-47.88125,35,0,0,,
S,Casas,,Parque Fehr,Rua Gervásio Cyrino,Padrão,274,89,250,2,2,2,3,522000,-21.98052,-47.93933,120,0,0,,
S,Apartamentos,Spazio Mont Royal,Distrito Industrial Miguel Abdelnur,Av. DR. HEITOR JOSE REALI,Padrão,1031,,,2,1,1,2,139000,,,122,0,40,230,48
S,Terreno,,Jardim das Torres,RUA LEONTINO PIRES,Padrão,1,548.95,548.95,,,,,190000,,,35,0,,,
S,Comercial,,PRESIDENTE COLLOR,RUA LUIZ MASCARIM,Salão,363,,199,2,2,3,2,335000,-22.06216,-47.89608,28,0,,,156
SL,Comercial,,Jardim Cruzeiro do Sul,Rua Francisco Marigo,Galpão,841,,308,,3,9,,510000,-22.04251,-47.88915,105,0,,,181.72
S,Apartamentos,Condomínio Mont Park ,Jardim Jóckei Club A,Rua Ray Wesley Herrick,Padrão,475,,,2,1,1,2,145000,-21.98461,-47.89507,51,0,0,210,45
S,Apartamentos,Residencial Ana Paula ,Vila Rancho Velho,Rua Theodolina Modena Coca,Padrão,85,,,2,1,1,2,230000,-22.01084,-47.86918,56,0,309,0,50
S,Terreno,Residencial Eldorado,Residencial Eldorado,Rua Miguel Petroni,Condomínio,4900,,324,,,,,320000,-21.98957,-47.92169,43,0,,0,
S,Apartamentos,Residencial Villa Real,Jardim Paraíso,Rua Princesa Isabel,Cobertura,234,,,3,4,3,6,1284700,-22.0104151,-47.8989913,59,0,0,0,137
S,Apartamentos,Vila Verde Sabará (Apartamento),Parque Sabará,Rua Doutor Marino Costa Terra,Padrão,1000,,68,2,1,1,2,351000,-22.01269,-47.86259,55,0,,0,68
S,Apartamentos,Residencial Villa Real,Jardim Paraíso,Rua Princesa Isabel,Padrão,234,,,2,2,,2,553900,-22.0104151,-47.8989913,63,0,0,0,67
S,Apartamentos,Residencial Villa Real,Jardim Paraíso,Rua Princesa Isabel,Padrão,234,,,1,2,,2,814800,-22.0104151,-47.8989913,33,0,,0,67
SL,Apartamentos,Edifício Portal do Sol,Recreio São Judas Tadeu,AV. GETÚLIO VARGAS,Padrão,2475,,47,2,1,1,2,213000,-22.0350361,-47.8680662,441,0,48,250,47
S,Apartamentos,Residencial Villa Real,Jardim Paraíso,Rua Princesa Isabel,Padrão,234,,,2,2,,3,794900,-22.0104151,-47.8989913,28,0,,0,67
S,Apartamentos,Residencial Villa Real,Jardim Paraíso,Rua Princesa Isabel,Padrão,234,,,2,2,,3,689900,-22.0104151,-47.8989913,28,0,,0,67
S,Apartamentos,Residencial Crystal Palace,Vila Marcelino,RUA RAIMUNDO CORREA,Padrão,1381,,70,2,1,2,2,240000,-22.0318872,-47.8761533,76,0,0,380,70
S,Apartamentos,Vila Verde Sabará (Apartamento),Parque Sabará,Rua Doutor Marino Costa Terra,Padrão,1000,,70,3,2,1,4,320000,-22.01269,-47.86259,54,0,0,457,67
SL,Comercial,,CENTRO,Avenida São Carlos,Ponto,1590,,88,,2,,,600000,-22.01935,-47.89051,82,0,,,88
S,Apartamentos,Edifício Marcela Fernanda ,Jardim Bandeirantes,Rua Miguel Petroni,Padrão,507,,30,1,1,1,1,140000,-22.00061,-47.9066,95,0,,150,30
S,Apartamentos,Residencial Analli,CENTRO,Rua Marechal Deodoro,Padrão,1234,,56,2,2,1,2,305000,-22.0152949,-47.895234,121,0,,0,56
S,Industrial,Condomínio Eco Tecnológico Damha II,Parque Tecnológico Damha,Alameda Sinlioku Tanaka,Terreno,202,,1200,,,,,640000,-21.95674,-47.89112,177,0,,0,1200
S,Apartamentos,Vila Verde Sabará (Apartamento),Parque Sabará,Rua Doutor Marino Costa Terra,Padrão,1000,,54,2,1,1,2,288000,-22.01269,-47.86259,164,0,,375,54
S,Casas,,Parque Industrial,RUA JULIANO PAROLO,Padrão,0,48,150,2,2,2,2,244000,-21.98899,-47.90091,158,0,,,
S,Apartamentos, Vila das Orquídeas,Jardim Jóckei Club A,Rua Rio Araguaia,Padrão,945,,56.67,2,1,1,2,233200,-21.9798928,-47.9015553,84,0,,0,43.66
S,Casas,,Jardim Pacaembu,AV. PACAEMBU,Padrão,77,60,144.65,2,1,2,2,290000,-22.03702,-47.89672,106,0,0,,
S,Casas,Condomínio Village Damha I,Jardim Jóckei Club A,Rua Ray Wesley Herrick,Condomínio,1501,178.36,300,3,2,2,4,1250000,-21.97934,-47.89713,105,0,0,0,
S,Apartamentos,Edifício Manaus,Jardim Gibertoni,RUA CORONEL CARLOS SIMPLICIO RODRIGUES,Padrão,75,,75,3,2,2,4,380000,-22.01937,-47.90758,80,0,0,0,
S,Casas,,Jardim Acapulco,RUA MADRE TEREZA DE CALCUTA,Padrão,298,164,250,3,3,2,5,660000,-21.99457,-47.91002,83,0,,,
S,Casas,,CIDADE ARACY II,RUA JOSÉ FRANCISCO BICALETTO,Padrão,127,54.3,125,2,1,2,2,180000,-22.0555306,-47.9120537,107,0,,,
S,Apartamentos,Residencial Ana Paula ,Vila Rancho Velho,Rua Theodolina Modena Coca,Padrão,85,,50,2,1,1,2,230000,-22.01084,-47.86918,31,0,,300,50
S,Apartamentos,Edifício Drummond,Jardim Lutfalla,Rua Cézar Ricomi,Kitnet,233,,35,1,1,,1,176000,,,32,0,,158,35
S,Apartamentos,Edifício Drummond,Jardim Lutfalla,Rua Cézar Ricomi,Kitnet,233,,35,1,1,,1,176000,,,26,0,,158,35
S,Apartamentos,Edifício Drummond,Jardim Lutfalla,Rua Cézar Ricomi,Kitnet,233,,35,1,1,,1,176000,,,18,0,,158,35
S,Apartamentos,Edifício Drummond,Jardim Lutfalla,Rua Cézar Ricomi,Kitnet,233,,35,1,1,,1,176000,,,44,0,,158,35
S,Apartamentos,Edifício Flor de Liz ,Residencial Parati,Travessa Francisco Latorre Primo,Padrão,180,,48.62,2,1,1,2,280000,,,182,0,0,0,48.62
S,Casas,,Portal do Sol,Rua Doutor Omar Pacheco Souza,Padrão,250,155,155,2,2,2,3,479000,-22.0247,-47.87284,286,0,81,,
S,Apartamentos,Edifício Mirante Alvorada,Jardim Alvorada,Rua Doutor Domingos Faro,Padrão,44,,77.14,2,2,1,3,290000,-22.0102,-47.90845,128,0,0,260,77.14
S,Casas,,BELVEDERE,Rua Ernesto Chiari,Padrão,419,124.5,138,2,2,2,3,280000,-22.04388,-47.90233,77,0,,,
S,Casas,,Parque Santa Marta,Avenida Américo Walter Buchvieser,Sobrado,236,355,355,5,4,4,7,1777000,-21.99519,-47.90476,127,0,380,,
S,Apartamentos,Edifício Monte Stella,Residencial Monsenhor Romeu Tortorelli,Avenida João Stella,Padrão,300,,45,2,1,1,2,200000,-22.0048495,-47.9234576,55,0,,180,45
SL,Comercial,,Centro,Rua Nove de Julho,Salão,982,,80,,1,,,675000,-22.0212,-47.89248,103,0,100,,80
S,Apartamentos,MONTE DOS PINHEIROS ,Parque Faber Castell,Avenida dos Sanhaços,Padrão,901,,45.87,2,1,,2,300000,-22.01498,-47.91203,278,0,,0,45.87
S,Casas,,Jardim Embaré,Rua Francisco Correa Bueno,Padrão,1050,90,250,2,1,2,2,350000,,,124,0,,,
S,Apartamentos,Parque dos Manacás,Recreio São Judas Tadeu,Avenida Gregório Aversa,Padrão,371,,45,2,1,1,2,202000,-22.03312,-47.86755,60,0,,0,45
S,Apartamentos,Edifício parque das Bromélias,Jardim Nova Santa Paula,Avenida Eliza Gonzales Rabello,Padrão,60,,65,2,2,1,3,300000,-21.9996539,-47.9000296,89,0,,450,65
S,Apartamentos,,Vila Marina,Rua João Leopoldino,Padrão,278,,71.32,2,2,1,3,275690,-21.9937917,-47.8881249,45,0,,,59.32
S,Apartamentos,,Vila Marina,Rua João Leopoldino,Padrão,278,,79.31,2,2,1,3,297690,-21.9937917,-47.8881249,25,0,,,66.31
S,Apartamentos,,Vila Marina,Rua João Leopoldino,Padrão,278,,79.5,2,2,1,3,302590,-21.9937917,-47.8881249,29,0,,,67.5
S,Apartamentos,,Vila Marina,Rua João Leopoldino,Padrão,278,,72.05,2,2,1,3,279690,-21.9937917,-47.8881249,16,0,,,60.05
S,Apartamentos,,Vila Marina,Rua João Leopoldino,Padrão,278,,71.32,2,2,1,3,273900,-21.9937917,-47.8881249,18,0,,,59.32
S,Apartamentos,,Vila Marina,Rua João Leopoldino,Padrão,278,,78.31,2,2,1,3,294900,-21.9937917,-47.8881249,17,0,,,66.31
S,Apartamentos,,Vila Marina,Rua João Leopoldino,Padrão,278,,79.5,2,2,1,3,299990,-21.9937917,-47.8881249,17,0,,,67.5
S,Terreno,,Vila Nossa Senhora de Fátima,Rua João Nonato,Lote,,0,200,,,,,145000,,,31,0,0,,
S,Apartamentos,,Vila Marina,Rua João Leopoldino,Padrão,278,,72.05,2,2,1,3,276900,-21.9937917,-47.8881249,18,0,,,60.05
S,Apartamentos,,Vila Marina,Rua João Leopoldino,Padrão,278,,71.32,2,2,1,3,267900,-21.9937917,-47.8881249,12,0,,,59.32
S,Apartamentos,,Vila Marina,Rua João Leopoldino,Padrão,278,,78.31,2,2,1,3,291990,-21.9937917,-47.8881249,26,0,,,66.31
S,Apartamentos,,Vila Marina,Rua João Leopoldino,Padrão,278,,79.5,2,2,1,3,296900,-21.9937917,-47.8881249,24,0,,,67.5
S,Apartamentos,,Vila Marina,Rua João Leopoldino,Padrão,278,,71.32,2,2,1,3,267900,-21.9937917,-47.8881249,24,0,,,59.32
S,Apartamentos,,Vila Marina,Rua João Leopoldino,Padrão,278,,79.5,2,2,1,3,293900,-21.9937917,-47.8881249,20,0,,,67.5
S,Apartamentos,,Vila Marina,Rua João Leopoldino,Padrão,278,,72.05,2,2,1,3,271900,-21.9937917,-47.8881249,14,0,,,60.05
S,Apartamentos,,Vila Marina,Rua João Leopoldino,Padrão,278,,71.32,2,2,1,3,265900,-21.9937917,-47.8881249,19,0,,,59.32
S,Apartamentos,,Vila Marina,Rua João Leopoldino,Padrão,278,,79.5,2,2,1,3,290900,-21.9937917,-47.8881249,24,0,,,67.5
S,Apartamentos,,Vila Marina,Rua João Leopoldino,Padrão,278,,72.05,2,2,1,3,269000,-21.9937917,-47.8881249,26,0,,,60.05
S,Apartamentos,,Vila Marina,Rua João Leopoldino,Padrão,278,,71.32,2,2,1,3,263000,-21.9937917,-47.8881249,23,0,,,59.32
S,Apartamentos,,Vila Marina,Rua João Leopoldino,Padrão,278,,78.31,2,2,1,3,283990,-21.9937917,-47.8881249,23,0,,,66.31
S,Apartamentos,,Vila Marina,Rua João Leopoldino,Padrão,278,,79.5,2,2,1,3,288900,-21.9937917,-47.8881249,27,0,,,67.5
S,Casas,,Vila Morumbi,Avenida Morumbi,Padrão,1386,142.5,165,3,1,,3,380000,-22.04402,-47.88542,34,0,0,,
S,Casas,,Parque Sisi,Rua Riskalla Hadad,Sobrado,1163,225,225,3,2,5,4,350000,-22.00675,-47.92134,27,0,,,
S,Casas,Condomínio Residencial Swiss Park,Parque Faber Castell,Passeio das Palmeiras,Condomínio,321,410,450,4,4,2,8,2050000,-22.01629,-47.91655,59,0,,450,
S,Casas,,Vila Celina,RUA ROTARY CLUB,Padrão,289,49,250,1,1,4,1,270000,-21.9953651,-47.887759,120,0,,,
SL,Apartamentos,Parque Monte Everest ,Parque Fehr,Servidão de Passagem João Deriggi,Padrão,181,,50,2,1,1,2,235000,,,168,0,45,201.44,50
S,Casas,,Vila Prado,AV. SALLUM,Padrão,330,288.52,450,3,1,2,3,550000,-22.02482,-47.90203,33,0,,,
SL,Apartamentos,Edifício Vermont,Parque Faber Castell,Passeio das Palmeiras,Padrão,420,,79,2,2,2,3,960000,,,329,0,220,500,79
S,Apartamentos,Edifício Juan Miró (R. José Nunes),Jardim Gibertoni,Rua José Nunes,Padrão,101,,67,2,2,1,3,240000,-22.01932392,-47.90817438,135,0,62,339,67
S,Terreno,,Vila Boa Vista,Rua Francisco de Oliveira Penteado,Lote,770,,275,,,,,220000,-22.02952,-47.90343,32,0,0,,
S,Casas,Condomínio Reserva Aquarela ,Parque Sisi,Rua Jean Piaget,Edícula em condomínio,0,166,305,3,2,4,4,1160000,-22.00804,-47.91836,62,0,,360,
S,Terreno,,Jardim Macarengo,Rua Tiradentes,Padrão,1571,,1571,,,,,2000000,,,20,0,,,
S,Casas,,Vila Prado,Rua Ananias Evangelista de Toledo,Padrão,1172,140,150,2,1,2,2,320000,,,149,0,80,,
S,Casas,Condomínio Parque Faber III,Parque Faber Castell,Passeio das Magnólias,Condomínio,1041,165,360.15,3,3,2,5,1299000,,,113,0,,0,
S,Apartamentos,Edifício Santa Isabel ,Jardim São Paulo,Rua Monsenhor Alcindo Carlos Veloso Siqueira,Padrão,33,,66.56,2,1,1,2,180000,-22.03364,-47.88034,32,0,,0,66.56
S,Apartamentos,Edifício Santa Isabel ,Jardim São Paulo,Rua Monsenhor Alcindo Carlos Veloso Siqueira,Padrão,33,,66.56,2,1,1,2,160000,-22.03364,-47.88034,28,0,,200,66.56
S,Terreno,,Jardim Santa Tereza,RUA MANOEL M. CARLOS PINTO,Padrão,13,,213,,,,,120000,,,19,0,,,
S,Casas,,Jardim Paulistano,Rua Paulo Elias,Padrão,20,150,121.8,3,2,1,3,325000,-21.99656,-47.89872,33,0,0,,
S,Apartamentos,Edifício Mont D'oro,Residencial Monsenhor Romeu Tortorelli,Avenida João Stella,Padrão,200,,45,2,1,1,2,178000,,,19,0,,0,45
S,Casas,Moradas São Carlos I,Jardim Ipanema,AV. OTTO WERNER ROSEL,Condomínio,1455,75,100,2,1,1,2,197000,-21.98484,-47.93834,166,0,,125,
S,Terreno,,Parque dos Passaros,Quadra 1 Lote 16,Lote,16,,314.69,,,,,240581,,,16,0,,,
S,Terreno,,Residencial Arcoville,Rua Cinco,Padrão,0,,240,,,,,150000,-21.96509,-47.93033,22,0,,,
S,Terreno,,Parque dos Passaros,Quadra 1 Lote 15,Lote,15,,312.26,,,,,238723,,,13,0,,,
S,Casas,,BOA VISTA,Rua Maestro Adolpho Raimundo Caputo,Padrão,175,174.05,250,2,2,1,3,372000,-22.0362294,-47.8987537,55,0,0,,
S,Apartamentos,Condomínio Spazio Monte Olimpo,Recreio São Judas Tadeu,Avenida Gregório Aversa,Padrão,450,,50,2,1,1,2,230000,-22.0333618,-47.8660525,34,0,,0,50
S,Apartamentos,Edifício Monte Dore,Jardim Paraíso,RUA MAESTRO JOÃO SEPPE,Cobertura,303,,164,3,2,2,4,650000,-22.01402,-47.9019,42,0,,0,164
S,Apartamentos,Residencial Monte Berlin,Jardim Embaré,Rua Ray Wesley Herrick,Padrão,5441,,45,2,1,1,2,181000,-21.9751112,-47.9332665,26,0,0,0,45
S,Apartamentos,Edifício Pajuçara ,Jardim Santa Paula,Rua José Duarte de Souza,Padrão,975,,70,2,1,1,2,205000,-21.9967,-47.89723,142,0,,0,58
S,Terreno,Jardim Vista Alegre ,Loteamento Jardim Vista Alegre,Rua Maria Sanches Darezzo,Padrão,0,,1058.62,,,,,380000,-21.96166,-47.92538,36,0,0,0,
S,Terreno,Jardim Vista Alegre ,Loteamento Jardim Vista Alegre,Rua Maria Sanches Darezzo,Padrão,0,,1000,,,,,350000,-21.96166,-47.92538,44,0,0,0,
S,Terreno,Jardim Vista Alegre ,Loteamento Jardim Vista Alegre,Rua Maria Sanches Darezzo,Padrão,0,,1019.28,,,,,380000,-21.96166,-47.92538,34,0,0,0,
S,Terreno,Jardim Vista Alegre ,Loteamento Jardim Vista Alegre,Rua Maria Sanches Darezzo,Padrão,0,,1001.75,,,,,350000,-21.96166,-47.92538,23,0,0,0,
S,Terreno,Jardim Vista Alegre ,Loteamento Jardim Vista Alegre,Rua Maria Sanches Darezzo,Padrão,0,,1002.5,,,,,350000,-21.96166,-47.92538,30,0,0,0,
S,Terreno,,Parque Santa Mônica,RUA OSCAR JENSEN,Residencial,,0,473.27,,,,,330000,,,24,0,0,,
S,Casas,Condomínio Parque Residencial Damha IV,Parque Tecnológico Damha,RUA MIGUEL DAMHA,Condomínio,1601,195,375,3,5,4,6,1490000,-21.96392,-47.89699,55,0,0,450,
S,Apartamentos,Edifício Mazzo,Parque Sabará,Rua Lourenço Inocentini,Padrão,461,,62,2,1,1,2,192000,-22.01038,-47.8668,29,0,0,323.38,0
S,Rural,,AREA RURAL,Rua RUA COLEIRINHAS,Fazenda,2,,,5,3,,5,42000000,,,60,0,,,
S,Rural,,AREA RURAL,Rua RUA COLEIRINHAS,Sítio,0,,,,,,,5200000,,,78,0,,,
S,Terreno,,Jardim Ricetti,Rua Antônio Carreri,Lote,,,310,,,,,300000,,,40,0,,,
S,Terreno,,Jardim Ricetti,Rua Antônio Carreri,Lote,350,,310,,,,,300000,,,24,0,,,
S,Casas,,Jardim de Cresci,Rua Maria Bernardete R. Ferrari,Sobrado,112,289.15,300,3,3,2,4,850000,-22.0303,-47.86268,129,0,0,,
SL,Casas,,Jardim Bicão,Rua Manoel Dias,Padrão,201,140,200,3,2,1,3,350000,-22.0287,-47.91169,519,0,141,,
S,Terreno,,Jardim Embaré,Rua Syllas da Silva Rosa,Residencial,900,,250,,,,,140000,,,59,0,,,
S,Apartamentos,Novos Ares Residencial,Jardim Brasil,Rua Eugênio Franco de Camargo,Padrão,1200,,50,2,2,1,3,290000,,,229,0,40,293,50
S,Apartamentos,Edificio Girassol,Cidade Jardim,Al DAS HORTÊNCIAS,Kitnet,183,,48,1,1,1,1,225000,,,46,0,,271,48
S,Apartamentos,Edificio Girassol,Cidade Jardim,Al DAS HORTÊNCIAS,Kitnet,183,,48,1,1,1,1,225000,,,31,0,,271,48
S,Apartamentos,Edificio Girassol,Cidade Jardim,Al DAS HORTÊNCIAS,Kitnet,183,,48,1,1,1,1,225000,,,164,0,40,271,48
S,Casas,,Vila Monteiro (Gleba I),Rua Belarmino Indalécio de Souza,Comercial,158,200,500,,1,3,,1000000,-22.02435,-47.88904,25,0,0,,
S,Apartamentos,Edifício Atlantis Residence,Parque Faber Castell,Passeio das Palmeiras,Padrão,425,,117,3,4,3,6,950000,-22.01629,-47.91655,178,0,0,780,117
S,Apartamentos,Condomínio Mont Park ,Jardim Jóckei Club A,Rua Ray Wesley Herrick,Padrão,475,,48,2,1,1,2,160000,-21.98461,-47.89507,451,0,,210,48
S,Casas,Condomínio Parque Residencial Damha IV,Parque Tecnológico Damha,RUA MIGUEL DAMHA,Condomínio,1601,202.3,392.17,3,3,2,4,1600000,-21.96392,-47.89699,96,0,,0,
S,Terreno,,Jardim Cardinalli,RUA VEREADOR JOSÉ MARIUTTI SEPPE,Padrão,73,,420,,,,,388000,-22.0224707,-47.8737732,77,0,,,
S,Terreno,,Jardim Bandeirantes,Rua José Palone,Padrão,,,229.96,,,,,196000,,,68,0,,,
SL,Apartamentos,Spazio Mont Royal,Distrito Industrial Miguel Abdelnur,Av. DR. HEITOR JOSE REALI,Padrão,1031,,48.2,2,1,1,2,200000,,,190,0,40,230,48.2
S,Terreno,,Jardim Embaré,Rua Ayer Nociti,Lote,194,0,250,,,,,170000,-21.969423,-47.9316378,33,0,0,,
S,Casas,Condomínio Residencial Bosque de São Carlos ,Residencial Samambaia,Av. AVENIDA PEDRO MUSZKAT,Condomínio,1000,175,364,3,2,2,4,1093000,-21.96297,-47.88913,99,0,0,0,
S,Terreno,,Cidade Aracy,RUA EXPEDITA MARIA COSTA,Lote,,,250,,,,,150000,-22.0591,-47.90289,59,0,0,,
S,Casas,,CENTRO,Rua Padre Teixeira,Padrão,3089,173.4,308.7,3,2,2,4,550000,-22.01391,-47.88022,119,0,,,
SL,Comercial,,CEAT,RUA ALDO GEMANO KLEIN,Galpão,202,,2700,,3,,,4778000,-22.0687956,-47.8799641,89,0,1400,,1000
S,Apartamentos,Edifício Drummond,Jardim Lutfalla,Rua Cézar Ricomi,Kitnet,233,,35,1,1,,1,176000,,,26,0,,158,35
S,Apartamentos,Edifício Ponta do Mel,Jardim Santa Paula,Rua José Duarte de Souza,Padrão,180,,53.91,2,1,1,2,320000,-22.00061,-47.90196,84,0,0,0,53.91
S,Terreno,Condomínio Parque Residencial Damha IV,Parque Tecnológico Damha,RUA MIGUEL DAMHA,Condomínio,1601,,417.99,,,,,460000,-21.96392,-47.89699,106,0,0,450,
SL,Comercial,,CENTRO,Rua José Bonifácio,Prédio,849,,1820,,6,30,,3800000,-22.02128,-47.89373,87,0,,,920
S,Terreno,,Jardim Bandeirantes,Rua Miguel João,Padrão,1303,,600,,,,,550000,-21.9991057,-47.9110711,41,0,0,,
S,Apartamentos,Edifício Mercedes,Centro,RUA MAJOR JOSÉ INÁCIO,Padrão,2749,,,2,2,1,3,380000,-22.01671,-47.88376,101,0,,0,59
SL,Casas,,Vila Boa Vista 1,Rua Capitão Manoel Alves Carneiro,Padrão,855,142,142,2,2,2,3,290000,-22.0363386,-47.902523,247,1,,,
S,Casas,,Portal do Sol,Rua Paulino Gonçalves,Padrão,44,151,180,4,3,2,5,535000,,,61,0,,,
S,Terreno,,Jardim Cardinalli,Rua Pastor Cyrus Basset Dawsey,Padrão,386,,462.5,,,,,375000,,,45,0,,,
S,Casas,,Portal do Sol,Rua Doutor Omar Pacheco Souza,Padrão,275,114,300,2,2,4,3,530000,,,72,0,,,
S,Rural,Condomínio Vivenda do Broa,Broa,rua 17  B,Chácara,225,136,,2,3,6,2,265000,,,113,0,,0,
S,Casas,Condomínio Village Damha III,Jardim Jóckei Club A,Rua Ray Wesley Herrick,Condomínio,1500,182.2,305,3,3,2,6,1270000,-21.98228,-47.89581,127,0,,0,
SL,Apartamentos,Edifício Jardim de Sevilha ,Jardim Santa Paula,Rua José Duarte de Souza,Padrão,372,,52,1,1,,1,195000,-21.998228,-47.9004658,259,0,28,0,40
S,Casas,,Jardim São João Batista,RUA JOAQUIM DA CRUZ PENALVA,Padrão,440,109.07,130,2,1,1,2,195000,-22.00171,-47.87877,70,0,0,,
S,Apartamentos,RESIDENCIAL JARDIM ,Cidade Jardim,Rua das Margaridas,Padrão,58,,,2,2,1,3,350000,-22.0001083,-47.8955243,34,0,0,0,54
S,Casas,,RESIDENCIAL ITAMARATI,RUA CIDADE SHIBATA,Padrão,144,0,250,2,2,2,3,450000,-22.0005103,-47.8512351,122,0,,,
SL,Casas,,Jardim Mercedes,RUA ALFEO AMBROGIO,Padrão,770,450,450,3,3,4,4,585000,-22.02981,-47.88231,128,0,150,,
S,Terreno,Condomínio Parque Residencial Damha I ,Parque Tecnológico Damha,RUA MIGUEL DAMHA,Condomínio,1000,,536,,,,,880000,-21.96392,-47.89699,97,0,,800,
S,Casas,,Vila Boa Vista,RUA QUINTINO BOCAIÚVA,Padrão,1460,85.54,175,2,1,2,2,492000,-22.0339,-47.89849,105,0,0,,
S,Apartamentos,Edifício Mirante Araucária ,Jardim Alvorada,Rua Luiz Barbosa de Campos,Padrão,142,,56,2,1,1,2,380000,-22.0100242,-47.9078969,64,0,,0,56
S,Casas,,Vila Brasília,RUA HONDURAS,Padrão,347,324,525,5,6,4,5,700000,-21.99944,-47.87596,75,0,,,
SL,Casas,,Cidade Jardim,Al DOS NARCISOS,Padrão,97,125,180,2,2,2,2,320000,-21.99725,-47.89371,389,0,137,,
S,Apartamentos,Residencial Carlos Magno( Rua Dom Pedro II),Vila Monteiro (Gleba I),RUA DOM PEDRO II,Padrão,235,,65,2,1,,2,180000,-22.0247,-47.88769,48,0,,225,62
S,Casas,Condomínio Parque Residencial Damha III,Parque Tecnológico Damha,RUA MIGUEL DAMHA,Condomínio,800,260,493,3,4,4,6,2200000,-21.96392,-47.89699,177,0,,0,
S,Terreno,Residencial Damha Golf,Parque Tecnológico Damha,Avenida Conceição Vono Toledo Piza Fernandes,Condomínio,420,,1430.51,,,,,2000000,,,63,0,0,0,
SL,Casas,,Centro,RUA RIACHUELO,Padrão,795,108.64,133.7,2,2,1,2,350000,-22.01538,-47.89586,430,0,67,,
S,Terreno,Condomínio Parque Residencial Damha I ,Parque Tecnológico Damha,RUA MIGUEL DAMHA,Condomínio,1000,,420,,,,,620000,-21.96392,-47.89699,58,0,0,0,
S,Terreno,,Parque dos Flamboyant,Rua RUA ARY BRILIANO,Lote,259,,164,,,,,140000,,,51,0,,,
S,Casas,Moradas São Carlos II,Jardim Ipanema,AV. OTTO WERNER ROSEL,Condomínio,1111,65,,2,2,1,3,230000,-21.98484,-47.93834,109,0,0,130,
SL,Comercial,,Vila Brasília,RUA LUIZ LÁZARO ZAMENHOF,Barracão,670,,4735.1,,2,,,6000000,-22.0017748,-47.8703423,124,0,,,809
S,Apartamentos,Edifício Drummond,Jardim Lutfalla,Rua Cézar Ricomi,Kitnet,233,,35,1,1,,1,176000,,,60,0,,158,35
S,Apartamentos,Edifício Central Park,Parque Faber Castell,Passeio das Palmeiras,Duplex,55,,178,3,4,2,6,750000,-22.0159142,-47.9160164,109,0,587,1500,178
S,Apartamentos,Edifício Saint Pierre,Jardim Paraíso,RUA CONSELHEIRO JOÃO ALFREDO,Padrão,119,,65,2,2,2,2,260000,-22.00789,-47.90004,93,0,,0,65
S,Casas,,Jardim Santa Paula,Rua Célio Barbosa da Silva,Padrão,89,207.75,555,3,2,4,4,1200000,,,93,0,,,
S,Terreno,,Residencial Américo Alves Margarido,RUA ANTÔNIO CERRI,Padrão,39,,171.5,,,,,170000,-22.0065883,-47.8648138,56,0,,,
S,Terreno,,Residencial Américo Alves Margarido,RUA ANTÔNIO CERRI,Padrão,9,,171.5,,,,,160000,-22.0065883,-47.8648138,47,0,,,
S,Terreno,,Residencial Américo Alves Margarido,RUA ANTÔNIO CERRI,Padrão,8,,171.5,,,,,160000,-22.0067862,-47.8650117,28,0,,,
S,Rural,,Jardim Embaré,Avenida Clemente Talarico,Área,770,,,,,,,2130000,-21.96663,-47.94144,66,0,0,,
S,Casas,,DOURADINHO,Rua Maria Aparecida Jacinto de Moraes,Padrão,50,149,172.5,4,3,2,5,383000,-22.01926,-47.8421,120,0,,,
S,Terreno,,Cidade Aracy,RUA JOÃO MARTINS FRANCA,Padrão,,,125,,,,,90000,,,31,0,0,,
S,Casas,,Parque Delta,RUA CÂNDIDO SOBREIRA,Padrão,129,100,125,3,2,2,4,325000,-21.989458,-47.8966342,79,0,0,,
S,Terreno,,Cidade Aracy,RUA JOÃO MARTINS FRANCA,Padrão,,,257.6,,,,,160000,,,21,0,0,,
S,Terreno,,Cidade Aracy,RUA JOÃO MARTINS FRANCA,Padrão,,,257.6,,,,,160000,,,20,0,,,
S,Casas,Residencial Parque Fehr,Parque Fehr,Rua Antônio Estrozi,Padrão,169,205,250,3,2,2,4,770000,-21.97971,-47.93499,96,0,153.25,0,
S,Apartamentos,RESIDENCIAL JARDIM ,Cidade Jardim,Rua das Margaridas,Padrão,58,,53,2,2,1,3,246000,-22.0001083,-47.8955243,90,0,0,0,53
S,Terreno,,Jardim Bandeirantes,RUA ABRAHÃO JOÃO,Residencial,635,,310,,,,,240000,-22.00235,-47.9076,76,0,0,,
SL,Casas,Condomínio Parque Faber II,Parque Faber Castell,OUT DOS CURIÓS,Condomínio,172,350,350,5,5,4,9,2025000,,,379,0,250,800,
SL,Apartamentos,VILA DAS FLORES ,Cidade Jardim,RUA BERNARDINO FERNANDES NUNES,Padrão,1317,,50,2,1,1,2,230000,-21.99825,-47.89152,211,0,,218,50
S,Terreno,,Vila Monteiro (Gleba I),Rua São Joaquim,Área,2566,,1418,,,,,2263000,,,36,0,,,
S,Terreno,,Vila Boa Vista,RUA QUINTINO BOCAIÚVA,Área,323,,1790,,,,,2570000,,,34,0,,,
S,Apartamentos,Edifício Cidade Jardim,Parque Arnold Schimidt,Rua Thomaz Antônio Gonzaga,Padrão,333,,66,1,1,1,1,225000,,,35,0,,289,66
S,Apartamentos,Edifício Cidade Jardim,Parque Arnold Schimidt,Rua Thomaz Antônio Gonzaga,Padrão,333,,66,1,1,1,1,225000,,,29,0,,289,66
S,Apartamentos,Edifício Cidade Jardim,Parque Arnold Schimidt,Rua Thomaz Antônio Gonzaga,Padrão,333,,66,1,1,1,1,225000,,,25,0,,289,66
S,Apartamentos,Edifício Cidade Jardim,Parque Arnold Schimidt,Rua Thomaz Antônio Gonzaga,Padrão,333,,66,1,1,1,1,225000,,,25,0,,289,66
S,Apartamentos,Edifício Cidade Jardim,Parque Arnold Schimidt,Rua Thomaz Antônio Gonzaga,Padrão,333,,66,1,1,1,1,225000,,,25,0,,289,66
S,Apartamentos,Edifício Cidade Jardim,Parque Arnold Schimidt,Rua Thomaz Antônio Gonzaga,Padrão,333,,66,1,1,1,1,225000,,,23,0,,289,66
S,Terreno,,Jardim Bethânia,Rua Paulino Botelho de Abreu Sampaio,Área,1103,,918,,,,,1465000,,,34,0,,,
S,Apartamentos,Edifício João Vendramini Filho,Jardim Paraíso,RUA PROF. NICOLETA STELLA GERMANO,Cobertura,60,,145,3,2,2,4,527000,,,60,0,,640,145
S,Casas,,Jardim Cruzeiro do Sul,Rua Allan Kardec,Padrão,149,107,165,2,2,2,3,373000,-22.03721,-47.89137,70,0,0,,
S,Casas,,Conjunto Habitacional Santa Angelina,Rua Alcides Talarico,Padrão,121,46,180,1,1,2,1,120000,,,127,0,,,
S,Terreno,,Jardim Medeiros,RUA ALMIR JOSÉ TADEU PASCHOALIN,Padrão,266,,150,,,,,150000,-22.0398242,-47.9139762,31,0,,,
S,Casas,Moradas São Carlos I,Jardim Ipanema,AV. OTTO WERNER ROSEL,Padrão,1455,41,41,2,1,1,2,190000,-21.98484,-47.93834,441,0,20,125,
S,Casas,,Vila Arnaldo,RUA RAFAEL DE ABREU SAMPAIO VIDAL,Padrão,1944,111.81,669,3,1,1,3,675000,-22.01171,-47.88284,66,0,0,,
S,Terreno,,Vila Prado,Rua Cidade de Milão,Padrão,16,,300,,,,,265000,-22.03273,-47.89757,44,0,,,
S,Terreno,Condomínio Parque Residencial Damha IV,Parque Tecnológico Damha,RUA MIGUEL DAMHA,Lote,1601,,362.09,,,,,425000,-21.96392,-47.89699,96,0,0,0,
S,Casas,,Jardim das Torres Prolongamento,Rua Joffre Augusto Ribeiro de Souza,Padrão,23,48,132,2,1,1,2,260000,-22.03308,-47.91813,43,0,,,
S,Apartamentos,Condomínio Mont Park ,Jardim Jóckei Club A,Rua Ray Wesley Herrick,Padrão,475,,50,2,1,1,2,170000,-21.98461,-47.89507,48,0,32.86,210,46
S,Terreno,,Jardim das Torres Prolongamento,Rua Professor Oscar Picchi,Padrão,11,,250,,,,,160000,-22.03754,-47.91786,19,0,,,
S,Apartamentos,Condomínio Mont Park ,Jardim Jóckei Club A,Rua Ray Wesley Herrick,Padrão,475,,50,2,1,1,2,184000,-21.98461,-47.89507,52,0,350,210,46
S,Casas,,Jardim Hikari,Rua João Tonissi,Padrão,145,169.5,250,3,2,2,4,730000,-21.99341,-47.90167,57,0,,,
S,Terreno,Condomínio Parque Faber III,Parque Faber Castell,Passeio das Magnólias,Condomínio,1041,,311,,,,,380000,-22.01265,-47.91967,95,0,0,0,
S,Terreno,Condomínio Parque Faber III,Parque Faber Castell,Passeio das Magnólias,Condomínio,1041,,447,,,,,532000,-22.01265,-47.91967,200,0,0,0,
S,Casas,Parque do Espraiado,Parque Espraiado,Rua da Alta Tecnologia,Comercial,52,150,300,3,2,2,4,920000,-21.98905,-47.87347,372,0,100,460,
S,Apartamentos,Edifício Vitoria Regia ,Núcleo Residencial Silvio Vilari,Rua José Bonifácio,Padrão,1860,,175,3,2,2,4,850000,-22.02756,-47.89339,64,0,0,1200,175
S,Casas,Condomínio Residencial Montreal,Condomínio Residencial Montreal,Avenida Professora Maria de Cresci Leopoldino,Condomínio,555,359,490.29,4,4,4,6,3000000,,,49,0,,0,
SL,Casas,,Cidade Jardim,Al DAS CRISANDÁLIAS,Padrão,635,243.09,360,3,2,2,4,852000,-22.00271,-47.894,197,0,140,,
S,Casas,,Jardim Embaré,Rua Fortunato Dovigo,Padrão,700,195,250,3,2,2,4,520000,-21.9648,-47.94009,155,0,,,
S,Casas,,Vila Jacobucci,RUA ANTENOR RODRIGUES CAMARGO,Sobrado,555,180,150,2,1,2,2,220000,-22.0049429,-47.8696464,28,0,,,
S,Casas,,Loteamento Habitacional São Carlos 2,RUA OSTALIO PIERRE,Padrão,75,130,127.5,2,2,1,3,250000,-21.99071,-47.92171,90,0,,,
S,Rural,Tibaia de São Fernando II,TIBAIA DE SÃO FERNANDO,Faz CHACARA,Chácara em condomínio,128,96,,3,1,,3,850000,,,147,0,0,450,
S,Apartamentos,Aurora Gardens Residential Club ,Centreville,Rua José Rodrigues Sampaio,Padrão,777,,109,3,2,2,4,850000,-22.02495338,-47.88201212,122,0,0,550,109
S,Casas,,Jardim Nova São Carlos,Rua Antônio Masselli,Padrão,388,248,250,3,1,,4,639000,-22.02722,-47.87356,78,0,,,
S,Terreno,,Jane Valério,Lote 02 Quadra F,Lote,2,,150,,,,,100000,,,90,0,,,
S,Terreno,Condomínio Recanto do Sabiá ,Residencial Samambaia,Avenida Francisco Falvo,Condomínio,876,0,258,,,,,192000,-21.9565,-47.88721,41,0,0,0,
S,Terreno,Condomínio Monte das Araucárias ,SANTA FELICIA,AV. BRUNO RUGGIERO FILHO,Condomínio,180,,300,,,,,300000,-22.0000532,-47.9169315,89,0,0,0,
S,Casas,Moradas São Carlos II,Jardim Ipanema,AV. OTTO WERNER ROSEL,Condomínio,1111,70,140,3,2,2,4,300000,-21.98484,-47.93834,225,0,,240,
S,Casas,,Cidade Aracy,Rua Francisco Alberto Micelli,Padrão,265,126,126,2,1,2,2,275000,-22.05862,-47.89697,121,0,22,,
S,Terreno,Condomínio Village Damha III,Jardim Jóckei Club A,Rua Ray Wesley Herrick,Condomínio,1500,300,300,,,,,373000,-21.98228,-47.89581,102,0,,0,
S,Casas,Condomínio Faixa Azul,Residencial Samambaia,Av. AVENIDA PEDRO MUSZKAT,Condomínio,911,161.4,250,3,1,2,4,905000,-21.96297,-47.88913,167,0,,200,
S,Casas,,Jardim Centenário,Rua Borba Gato,Sobrado,220,108.94,165,2,2,2,3,400000,-21.999383,-47.9049887,63,0,0,,
S,Terreno,,Vila Costa do Sol,Rua José de Alencar,Padrão,180,,243,,,,,195000,-21.96297,-47.88913,38,0,,,
S,Casas,,Jardim Centenário,Rua Borba Gato,Sobrado,218,108.94,165,2,2,2,3,400000,-21.99907,-47.90495,29,0,0,,
S,Casas,,Cidade Aracy,Rua Francisco Alberto Micelli,Padrão,412,,250,3,1,2,3,266000,-22.05802,-47.89752,48,0,,,
S,Casas,,ROMEU TORTORELLI,RUA FRANCISCO XAVIER AMARAL FILHO,Padrão,180,55,140.94,2,1,4,2,200000,-22.00883,-47.92201,85,0,0,,
S,Rural,,JARDIM SANTA EUDÓXIA,Rua CRISTOVÃO MARTINELLI,Chácara,861,200,,2,1,,2,400000,,,148,0,0,,
S,Casas,,Vila Prado,Avenida Teixeira de Barros,Comercial,1374,160.72,259.38,3,2,1,3,650000,-22.03284,-47.89428,63,0,0,,
S,Casas,Condomínio Village Damha IV,VILLAGE DAMHA IV,Avenida Brasilino Damha,Condomínio,750,175,300,3,4,4,6,1275000,-21.97528,-47.89265,290,0,,0,
S,Apartamentos,Residencial Millennium Park,VILA NERY,Rua Theodolina Modena Coca,Padrão,155,,48,2,1,1,2,200000,-22.0119674,-47.8688308,57,0,,0,48
S,Apartamentos,Residencial Millennium Park,VILA NERY,Rua Theodolina Modena Coca,Padrão,155,,48,2,1,1,2,200000,-22.0119674,-47.8688308,14,0,,0,48
S,Apartamentos,RESIDENCIAL JARDIM ,Cidade Jardim,Rua das Margaridas,Padrão,58,,53,2,2,1,3,246000,-22.0001083,-47.8955243,69,0,0,0,53
S,Apartamentos,RESIDENCIAL JARDIM ,Cidade Jardim,Rua das Margaridas,Padrão,58,,53,2,2,1,3,246000,-22.0001083,-47.8955243,36,0,0,0,53
S,Apartamentos,RESIDENCIAL JARDIM ,Cidade Jardim,Rua das Margaridas,Padrão,58,,53,2,2,1,3,246000,-22.0001083,-47.8955243,53,0,0,0,53
S,Casas,,Jardim Tangará,Avenida Dom Carmine Rocco,Padrão,308,150,125,3,2,2,4,160000,-22.01295,-47.85617,107,0,0,,
SL,Comercial,,CENTRO,Rua Major José Inácio,Salão,2490,,400,0,4,4,0,1280000,-22.01694,-47.8862,231,0,150,,400
S,Casas,,Parque Delta,Rua Conde Roland Von Faber Castell,Padrão,110,120,300,3,2,3,3,405000,-21.99097,-47.89569,91,0,,,
S,Apartamentos,Parque dos Manacás,Recreio São Judas Tadeu,Avenida Gregório Aversa,Padrão,371,,59.5,2,2,1,3,265000,-22.03366,-47.8659,49,0,0,0,47.5
S,Apartamentos,Wish Parque Faber ,Parque Faber Castell,Passeio das Magnólias,Padrão,345,,80,2,3,2,3,960000,,,130,0,,0,76
S,Terreno,,Jardim Embaré,Rua Orlando de Oliveira,Lote,,,250,,,,,180000,,,68,0,,,
S,Casas,,Cidade Aracy,Rua Aparecido Pandolfelli,Padrão,322,220,150,2,4,2,3,320000,-22.0543,-47.90097,62,0,,,
S,Casas,,DOURADINHO,Rua ANTONIO JOSÉ BOZOLA,Padrão,36,125.9,172.5,3,2,2,3,270000,,,74,0,,,
S,Casas,,Jardim Ricetti,Rua Luiz Roher,Padrão,376,252.3,440,3,3,4,4,680000,-22.02687,-47.88207,52,0,,,
S,Terreno,,Jardim Embaré,Avenida Clemente Talarico,Área,0,,15380,,,,,3900000,-21.96709,-47.9414,94,0,,,
S,Rural,Residencial Quinta Dos Buritis,Quinta dos Buritis,Estrada Municipal Orlindo Vicente de Lourenço,Chácara,33,40,,1,1,,1,320000,,,88,0,0,0,
S,Casas,,Jardim Cruzeiro do Sul,Rua Allan Kardec,Sobrado,919,,200,4,4,3,4,596000,,,136,0,,,
S,Terreno,,Residencial Arcoville,Rua Sete,Padrão,0,,240,,,,,139000,-21.96414,-47.93013,74,0,,,
S,Terreno,,Cidade Aracy,Rua José Lotumulo,Padrão,86,,150,,,,,45000,-22.0538382,-47.9014797,80,0,,,
S,Apartamentos,Edifício Parque das Arvores ,Parque Sabará,Rua Doutor Marino Costa Terra,Padrão,370,,55,2,1,1,2,190000,-22.0116,-47.86503,87,0,0,0,43.35
S,Casas,,Vila São José,Rua Hipólito José da Costa,Padrão,852,134,184,3,1,2,3,480000,-22.00215,-47.87546,45,0,,,
S,Casas,,SANTA FELICIA,Rua Cândido de Arruda Botelho,Padrão,2690,243.03,186.8,3,3,1,4,650000,-21.99193,-47.92469,47,0,,,
S,Casas,,Parque Belvedere,RUA TADAO KAMICADO,Padrão,88,129,274,2,2,2,4,700000,-21.99827,-47.87238,52,0,,,
S,Apartamentos,Spazio Mont Royal,Distrito Industrial Miguel Abdelnur,Av. DR. HEITOR JOSE REALI,Padrão,1031,,45,2,1,1,2,150000,,,353,0,34,230,45
S,Casas,,Jardim Ipanema,Rua Vereador Lucas Perroni Júnior,Padrão,718,154.3,250,3,2,4,4,530000,-21.9866,-47.92797,137,0,,,
S,Casas,,Vila Boa Vista 1,Rua Cesar Dacorso Filho,Padrão,1443,133.25,250.64,2,1,,2,270000,,,89,0,0,,
S,Casas,,Vila Brasília,Rua Costa Rica,Padrão,146,128,165,3,1,2,3,350000,-21.99559,-47.88164,136,0,,,
S,Terreno,Condomínio Monte das Araucárias ,SANTA FELICIA,AV. BRUNO RUGGIERO FILHO,Condomínio,180,,300,,,,,325000,-22.0000532,-47.9169315,62,0,,280,
S,Comercial,,Cidade Aracy,Rua José Freitas de Souza,Ponto,110,,250,2,2,0,2,213000,-22.0568238,-47.9105753,59,0,,,
S,Casas,Residencial Villeneuve,Jardim Jóckei Club A,Rua Ray Wesley Herrick,Condomínio,2816,154.2,240,3,3,2,6,1150000,-21.98228,-47.89581,118,0,0,259,
S,Apartamentos,Edifício Norman Abbud,Jardim Lutfalla,RUA JACINTO FAVORETO,Padrão,625,,35,1,1,,1,224000,-22.00589,-47.8915,105,0,0,0,35
SL,Apartamentos,Edifício João Vendramini Filho,Jardim Paraíso,RUA PROF. NICOLETA STELLA GERMANO,Padrão,60,,70,2,2,1,3,367000,-22.00538,-47.90096,315,0,159,640,70
S,Comercial,,Vila Monteiro (Gleba I),Rua São Joaquim,Barracão,32,,132,,1,10,,350000,-22.0264,-47.88843,94,0,,,132
S,Casas,,Residencial Deputado José Zavaglia,Rua Elza de Santis,Padrão,197,120,200,3,3,2,4,230000,-22.04564,-47.9207,242,0,,,
S,Comercial,,CENTRO,RUA SETE DE SETEMBRO,Sala,1328,,,,111,,,250000,-22.0161749,-47.8930769,69,0,32,,54.66
S,Casas,,Jardim Bandeirantes,RUA JÚLIO FAGA,Padrão,163,,301.4,3,2,6,3,500000,-22.00304,-47.90323,50,0,,,
S,Apartamentos,Edifício Portal do Sol,Recreio São Judas Tadeu,AV. GETÚLIO VARGAS,Padrão,2475,,47.8,2,1,1,2,215000,-22.035027,-47.8681303,100,0,0,0,47.8
S,Casas,,Cidade Aracy,Rua Rino Sannicolo,Padrão,84,62.68,125,2,1,2,2,160000,-22.0572672,-47.918146,81,0,0,,
S,Casas,,Residencial Arcoville,Rua Oridio Belluco,Padrão,168,,250,2,2,4,3,649000,-21.96462,-47.93023,52,0,0,,
S,Terreno,Residencial Damha Golf,Parque Tecnológico Damha,Avenida Conceição Vono Toledo Piza Fernandes,Condomínio,420,,1404.4,,,,,1640000,,,50,0,0,0,
S,Casas,,Jardim Pacaembu,Avenida Maranhão,Padrão,64,121.9,179.85,2,1,2,2,245000,-22.03711,-47.89601,244,0,,,
S,Casas,,Planalto Paraíso,Rua Nestor de Campos,Padrão,375,330,720,3,4,3,4,1300000,-22.0051425,-47.9161283,107,0,,,
S,Casas,,Jardim Embaré,RUA HUGO DE CARLI,Padrão,100,73.9,250,2,2,2,3,500000,-21.96988,-47.93266,49,0,,,
S,Casas,,Vila Prado,Rua Desembargador Júlio Faria,Padrão,140,171.22,300,3,1,1,3,310000,-22.02906,-47.89567,32,0,0,,
S,Casas,Moradas São Carlos III,Jardim Ipanema,AV. OTTO WERNER ROSEL,Condomínio,811,80,100,3,1,2,3,310000,-21.98484,-47.93834,167,0,0,180,
S,Terreno,Condomínio Residencial Swiss Park,Parque Faber Castell,Passeio das Palmeiras,Condomínio,321,,450.15,,,,,617000,-22.01629,-47.91655,100,0,0,0,
S,Casas,,Jardim Ipanema,Rua JOSE LORETTI,Padrão,152,150,250,2,2,2,3,540000,-21.9903456,-47.9343159,143,0,,,
S,Casas,,Cidade Aracy,Rua Augusto Barbosa,Padrão,45,98,125,2,1,3,2,160000,-22.0559128,-47.9148909,112,0,,,
S,Casas,Condomínio Parque Residencial Damha II,Parque Tecnológico Damha,RUA MIGUEL DAMHA,Condomínio,1400,313,745,3,4,2,6,2980000,-21.96484,-47.89669,195,0,0,0,
S,Apartamentos,Parque das Acácias ,Recreio São Judas Tadeu,AV. GREGÓRIO AVERSA,Padrão,627,,65,2,1,1,2,230000,-22.0337254,-47.8653803,136,0,,200,60
S,Casas,,Centreville,Rua Santa Cruz,Padrão,151,65,64.19,1,1,,1,180000,-22.0234,-47.89325,111,0,,,
S,Casas,,Parque dos Flamboyant,Rua Delci Antonia Raymundo,Padrão,85,60,160,3,1,2,3,250000,,,103,0,,,
S,Casas,,CENTRO,Rua Capitão Adão Pereira da Silva Cabral,Padrão,450,210,368.75,3,2,2,4,1000000,,,53,0,,,
S,Casas,,Conjunto Habitacional Dom Constantino Amstalden,RUA ANTONIO FRANCISCO NOVO,Padrão,518,138,138,3,3,,3,171000,,,27,0,0,,
S,Apartamentos,Spazio Monte Logan ,SANTA FELICIA,TVS FRANCISCO LATORRE PRIMO,Padrão,12,,43,2,1,2,2,133000,-21.9991367,-47.9164309,118,0,,250,43
S,Casas,,Parque Delta,Rua Raphael Di Tomazo,Padrão,37,51.48,125,1,1,,1,120000,-21.98983,-47.8958,163,0,,,
S,Apartamentos,Edifício Manaus,Jardim Gibertoni,RUA CORONEL CARLOS SIMPLICIO RODRIGUES,Padrão,75,,60,3,2,,4,320000,-22.01937,-47.90758,224,0,93,480,60
S,Apartamentos,Edifício sophia Jorge ,Jardim Lutfalla,Rua Cézar Ricomi,Padrão,230,,,1,1,,1,278000,-22.0052465,-47.8931405,63,0,0,180,35
S,Casas,,ROMEU TORTORELLI,RUA FRANCISCO XAVIER AMARAL FILHO,Padrão,109,50.44,125.4,2,1,2,2,250000,-22.00855,-47.92141,44,0,,,
S,Casas,,Residencial Astolpho Luiz do Prado,RUA ARMANDO PISANI,Padrão,71,125.81,152,2,2,2,3,372000,-21.9952,-47.85839,63,0,,,
S,Casas,,Vila Celina,RUA ARTHUR DE OLIVEIRA LIMA,Padrão,76,180,300,3,1,1,3,350000,-21.99507,-47.88957,39,0,0,,
S,Terreno,Condomínio Monte das Araucárias ,SANTA FELICIA,AV. BRUNO RUGGIERO FILHO,Condomínio,180,,300,,,,,310000,-22.0000532,-47.9169315,41,0,,0,
S,Terreno,,ROMEU TORTORELLI,RUA FÁBIO DE ANGELIS PORTO,Padrão,,,125,,,,,93000,,,33,0,0,,
S,Terreno,,ROMEU TORTORELLI,RUA FÁBIO DE ANGELIS PORTO,Padrão,,,130,,,,,88000,,,21,0,0,,
S,Terreno,,Residencial Monsenhor Romeu Tortorelli,Rua Roberto Ferreira Lassance,Padrão,,,125,,,,,85000,,,27,0,0,,
S,Casas,Residencial Villeneuve,Jardim Jóckei Club A,Rua Ray Wesley Herrick,Condomínio,2816,233,240,3,1,2,4,1580000,-21.98228,-47.89581,122,0,,259,
S,Apartamentos,Edifício José Alfredo,CENTRO,Rua Quinze de Novembro,Padrão,2378,,,3,2,3,3,1064000,-22.0124,-47.88713,64,0,0,999,145
S,Terreno,,Jardim Pacaembu,Rua Pará,Residencial,,,174.4,,,,,100000,,,52,0,,,
S,Casas,,Jardim Bandeirantes,Rua Padre Bonilha,Padrão,111,152.4,300,3,1,2,3,425000,-22.00234,-47.90581,42,0,,,
S,Terreno,,Jardim Nova São Carlos,RUA JOSÉ MORASCHI,Comercial,0,,624.62,,,,,937000,,,57,0,3300,,
S,Terreno,,CENTRO,Rua Capitão Adão Pereira da Silva Cabral,Padrão,258,0,515.7,,,,,517000,,,42,0,0,,
S,Apartamentos,Edificio Abiathar ,Jardim Macarengo,RUA DONA ALEXANDRINA,Padrão,2033,,,1,1,1,1,230000,-22.00777,-47.89004,76,0,0,280,40
S,Casas,,Jardim Cruzeiro do Sul,Rua Allan Kardec,Padrão,54,163,180,3,2,2,3,350000,-22.03662,-47.89191,48,0,,,
S,Apartamentos,Edifício Rene Tadeu Lopes,Jardim Nova Santa Paula,AV. LIBERDADE,Padrão,324,,,1,1,1,1,190000,-21.99818,-47.89734,156,0,0,238,40
S,Casas,,Jardim Bandeirantes,Rua José Palone,Padrão,50,110.49,150,2,1,2,2,330000,-22.00106,-47.90795,78,0,0,,
S,Casas,,MADRE CABRINI,Avenida Santa Madre Cabrine,Padrão,601,120,120,2,1,2,2,220000,-22.04947,-47.89458,438,0,30,,
S,Casas,,Vila Elizabeth,Rua Antônio Rodrigues Cajado,Padrão,2088,110,396,1,2,2,2,535000,-22.00913,-47.88387,54,0,0,,
S,Terreno,,SANTA FELICIA,Rua Marcus Vinícius de Mello Moraes,Comercial,447,,300,,,,,260000,,,65,0,,,
S,Terreno,,Jardim Nova São Carlos,Rua Elias Miguel Mhirdaui,Comercial,371,,274.42,,,,,412000,-22.02923,-47.8736,63,0,,,
S,Casas,,Jardim Cruzeiro do Sul,Rua Allan Kardec,Padrão,980,140,330,3,1,2,3,550000,,,69,0,,,
SL,Apartamentos,Novos Ares Residencial,Jardim Brasil,Rua Eugênio Franco de Camargo,Padrão,1200,,49,2,2,1,3,340000,-22.02108,-47.87804,576,0,42,300,49
S,Terreno,,Jardim Hikari,Rua José Favoretto,Lote,0,,277.5,,,,,180000,-21.99208,-47.90135,45,0,,,
S,Terreno,,Jardim Hikari,Rua José Favoretto,Lote,0,,272.5,,,,,180000,-21.99208,-47.90135,30,0,,,
S,Terreno,,Jardim Hikari,Rua José Favoretto,Lote,0,,267.5,,,,,180000,-21.99208,-47.90135,25,0,,,
S,Terreno,,Jardim Hikari,Rua José Favoretto,Lote,0,,276.25,,,,,180000,-21.99208,-47.90135,41,0,,,
S,Casas,,Jardim Pacaembu,RUA CEARÁ,Sobrado,465,188.21,176,2,2,2,2,405000,-22.0392,-47.89506,70,0,20.96,,
S,Casas,,Cidade Aracy,Rua Aldo Milaneto,Padrão,361,78,100,2,1,1,2,180000,-22.05975,-47.90493,56,0,,,
S,Terreno,Condomínio Reserva Aquarela ,Parque Sisi,Rua Jean Piaget,Condomínio,0,,250,,,,,300000,-22.00804,-47.91836,103,0,0,280,
S,Casas,,Jardim Tijuca,RUA QUATRO,Padrão,29,140,150,2,2,2,2,300000,-22.0615843,-47.8949461,87,0,0,,
S,Terreno,,Jardim Embaré,Avenida Clemente Talarico,Padrão,1,0,250,,,,,138000,-21.9671,-47.9414,65,0,,,
SL,Casas,,Vila São José,Rua Hipólito José da Costa,Padrão,561,159.44,250,3,1,3,3,400000,-22.0022817,-47.8746373,281,0,75,,
S,Casas,,Jardim Santa Paula,Rua José Duarte de Souza,Padrão,858,187,300,3,3,2,4,550000,-21.99693,-47.89799,270,0,,,
S,Casas,,Jardim Embaré,RUA AGINALDO MELO NUNES,Padrão,65,180,250,3,2,2,4,645000,-21.9674,-47.93688,109,0,,,
S,Terreno,Condomínio Parque dos Pinheiros ,Parque dos Timburis,Rua Cremilde Zabotto Poianas,Condomínio,0,,130,,,,,144000,-22.01841881,-47.86119819,101,0,0,0,
S,Terreno,,Parque dos Passaros,Rua 04,Lote,4,,286.35,,,,,200000,-21.98698498,-47.89060722,30,0,0,,
S,Terreno,,Parque dos Passaros,Rua 04,Lote,4,,286.35,,,,,200000,-21.98746251,-47.89026307,43,0,0,,
S,Terreno,,Parque dos Passaros,Rua 03,Lote,3,,285.12,,,,,200000,-21.98722374,-47.89039135,33,0,0,,
S,Casas,,Vila Costa do Sol,Rua Professor Mozart de Santos Mello,Padrão,396,95.1,104,3,1,1,3,218000,-21.99988,-47.88156,101,0,0,,
S,Casas,,Jardim Cardinalli,Rua José Cerri,Padrão,296,199.67,418,3,2,4,4,850000,-22.02015,-47.87204,233,0,149.31,,
S,Apartamentos,Edificio Spazio Mont Vernon,Jardim Brasil,Rua Dona Maria Izabel de Oliveira Botelho,Padrão,1000,,55,2,1,1,2,190000,,,271,0,,390,55
S,Casas,,Jardim Cruzeiro do Sul,Rua Allan Kardec,Padrão,899,172,330,3,2,2,4,424000,-22.04166,-47.88885,69,0,,,
S,Casas,,Jardim Araucária,Rua Jaime Cordeiro,Padrão,363,47,140,2,1,1,2,360000,-21.97702,-47.94967,117,0,,,
S,Casas,,Residencial Deputado José Zavaglia,Rua VEREADOR ANTONIO SILVA,Padrão,488,42,200,2,1,2,2,138000,-22.0471,-47.92288,107,0,12.03,,
S,Casas,,Jardim Beatriz,Rua Hermínio Bernasconi,Padrão,1639,119,150,3,2,2,3,235000,-22.04104,-47.90795,301,0,,,
S,Rural,,Estância Maria Alice Prolongamento,Rua Pedro Gatti Neto,Chácara,25,,,3,2,,3,600000,,,133,0,,,
S,Casas,,Vila Nossa Senhora de Fátima,Rua João Nonato,Padrão,253,100,168,3,3,2,4,350000,-22.00814,-47.87166,54,0,0,,
S,Casas,,Vila Costa do Sol,Rua Campos Sales,Padrão,858,112.7,156.64,2,2,1,3,420000,-21.999131,-47.8859405,36,0,,,
S,Terreno,,Jardim Letícia,RUA LEONARDO CUMPRE JANGELLI,Padrão,,,250,,,,,202000,,,51,0,,,
S,Casas,,Jardim Ipanema,Rua Vereador Lucas Perroni Júnior,Padrão,358,170,250,2,2,2,3,393000,-21.98808,-47.93122,58,0,,,
S,Comercial,Edifício Rotary Club,CENTRO,Rua Conde do Pinhal,Sala,2267,,45,,1,,,128000,-22.01769,-47.8881,68,0,,0,
S,Casas,,Loteamento Residencial Vida Nova São Carlos,Rua Benedito Roncon,Padrão,61,60,160,2,1,1,2,160000,,,171,0,,,
S,Apartamentos,Residencial Aline,Vila Pelicano,RUA ROBERTO SIMONSEN,Padrão,10,,50,2,1,1,2,230000,-22.02188,-47.89755,51,0,0,0,50
S,Casas,,Jardim Araucária,RUA SALVADOR MAZZO,Padrão,599,81,150,2,1,,2,318000,-21.97262,-47.94786,81,0,,,
S,Casas,Condomínio Village Damha III,Jardim Jóckei Club A,Rua Ray Wesley Herrick,Condomínio,1500,1820,307,3,4,4,5,1200000,-21.98228,-47.89581,68,0,0,0,
S,Casas,,Jardim Embaré,Rua Fábio Squassoni,Padrão,60,,500,3,2,8,3,995000,-21.9682806,-47.9337879,89,0,,,
S,Apartamentos,Edifício Spazio Monte Azul,Distrito Industrial Miguel Abdelnur,Av. DR. HEITOR JOSE REALI,Padrão,1426,,49,2,1,1,2,190000,,,35,0,,0,49
S,Casas,Condomínio Orizzonti di San Carlo (Casa),SANTA FELICIA,AV. BRUNO RUGGIERO FILHO,Padrão,101,150,200,3,2,2,3,639000,-21.99997,-47.91705,197,0,,0,
S,Casas,,Jardim Araucária,Rua Jaime Cordeiro,Padrão,58,43,150,2,1,2,2,291000,-21.9804143,-47.9482513,45,0,0,,
S,Apartamentos,Edifício Monte Stella,Residencial Monsenhor Romeu Tortorelli,Avenida João Stella,Padrão,300,,,2,1,1,2,175000,-22.0048495,-47.9234576,56,0,,0,49
S,Casas,,Cidade Aracy,Rua Pedro de Paula,Padrão,193,95,125,2,1,2,2,225000,-22.055217,-47.9088647,105,0,,,
S,Casas,Residencial Eldorado,Residencial Eldorado,Rua Miguel Petroni,Condomínio,4900,188,312,3,2,4,4,880000,-21.98957,-47.92169,246,0,0,500,
S,Apartamentos,Residencial Chamonix,Jardim Paraíso,RUA ALICE J. DANNA JULIANA,Padrão,77,,,2,1,1,2,176000,-22.00586,-47.90145,102,0,,590,45
S,Apartamentos,Spazio Mont Royal,Distrito Industrial Miguel Abdelnur,Avenida Doutor Heitor José Reali,Padrão,1031,,48.31,2,1,1,2,235000,-22.04005535,-47.87732363,101,0,,0,48.31
S,Casas,,Jardim São Carlos,RUA ALÍPIO BENEDITO,Padrão,57,142.03,300,2,2,2,3,280000,-22.0192,-47.89879,53,0,,,
SL,Terreno,,Centro,Rua José Bonifácio,Comercial,959,,800,,,,,1596000,-22.02033,-47.89383,138,0,600,,
S,Terreno,,Vila Arnaldo,RUA MACHADO ROLEMBERG,Padrão,0,,281.78,,,,,425000,-22.01176,-47.88438,72,0,,,
S,Apartamentos,Murano Residence,Parque Faber Castell,Passeio das Palmeiras,Padrão,821,,104,3,2,2,4,760000,-22.01629,-47.91655,417,0,170.05,928,104
SL,Casas,,Jardim São João Batista,Rua Durvalino Gonçalves da Silva,Padrão,25,130,250,2,2,2,3,320000,-21.99954,-47.87646,448,0,80,,
S,Rural,,Jardim São João Batista,Rodovia Washington Luiz,Área,0,2000,,,,,,4000000,-22.00243,-47.86817,83,0,,,
S,Casas,,Jardim Embaré,Rua Benedito Luiz Veltroni,Padrão,295,120,250,2,2,6,3,470000,,,193,0,,,
S,Casas,,Vila Santa Madre Cabrini,Rua Pedro de Almeida,Padrão,542,170,250,4,2,2,5,450000,-22.05028,-47.89308,51,0,0,,
S,Casas,Condomínio Residencial Parati,SANTA FELICIA,Rua Murillo Cassinelli Porto,Condomínio,8,172,270,3,2,4,4,692000,-21.99212,-47.91882,139,0,152,370,
S,Terreno,,Parque dos Passaros,RUA 03,Lote,3,,301.61,,,,,210000,,,33,0,0,,
S,Casas,Parque do Espraiado,Parque Espraiado,Rua da Alta Tecnologia,Sobrado Condomínio,99,155,308,3,2,2,4,660000,-21.98905,-47.87347,231,0,,0,
S,Terreno,,Parque dos Passaros,Rua 04,Lote,3,,328.93,,,,,220000,,,33,0,0,,
S,Apartamentos,Edifício Piet Mondrian,Jardim Gibertoni,RUA PORCENO MARINO,Padrão,115,,55,1,1,1,1,250000,-22.0195,-47.90883,47,0,0,130,55
S,Terreno,,Jardim Letícia,Rua Doutor Alberto Labadessa,Lote,0,,250,,,,,185000,,,42,0,,,
S,Casas,,Vila Carmem,Rua Cesar Dacorso Filho,Padrão,995,80,250,2,1,2,2,410000,-22.0274,-47.90779,42,0,,,
S,Casas,,Vila Boa Vista 1,Rua Martim Luther King,Padrão,996,40,250,1,1,1,1,380000,-22.0322973,-47.9051824,41,0,,,
S,Casas,,Vila Boa Vista 1,Rua Martim Luther King,Padrão,967,70,125,2,1,1,2,350000,-22.03199,-47.90516,54,0,,,
S,Casas,,Jardim Cruzeiro do Sul,RUA ELIAS ARSENIOS,Sobrado,1238,190,,3,3,2,5,480000,-22.0468124,-47.887929,146,0,,,
S,Casas,,CENTRO,Rua Treze de Maio,Comercial,2756,231,300,2,3,2,2,795000,-22.01875,-47.88333,59,0,,,
S,Comercial,,Parque Arnold Schimidt,AV. FRANCISCO PEREIRA LOPES,Loja,2550,,118.21,,1,,,320000,-22.00166,-47.9002,60,0,108,,
S,Casas,Condomínio Village Damha I,Jardim Jóckei Club A,Rua Ray Wesley Herrick,Condomínio,1501,176.93,300,3,3,2,4,1040000,-21.97934,-47.89713,163,0,0,350,
