indType,Property_category,District,Street_name,Property_subcategory,numNumber,Built_uparea,Area_total,Bedroom,Bathroom,Grages,totalRooms,valLocation,latitude,longitude,totalAccess,flgHighlight,prop_char_95,Property_tax
L,Casas,Parque Industrial,Rua Doutor Alberto Cattani,Kitnet,100,30,30,1,1,0,1,556,-21.98916,-47.90292,1,0,,
L,Apartamentos,Residencial Monsenhor Romeu Tortorelli,Avenida João Stella,Padrão,480,,50,2,1,1,2,700,,,1,0,50,
L,Apartamentos,Parque Faber Castell,Avenida dos Sanhaços,Padrão,901,,50,2,1,1,2,1600,-22.01498,-47.91203,3,0,50,
L,Apartamentos,Parque Faber Castell,Avenida dos Sanhaços,Padrão,901,,50,2,1,1,2,1334,-22.01498,-47.91203,1,0,50,
L,Apartamentos,Vila Rancho Velho,Rua Theodolina Modena Coca,Padrão,85,,50,2,1,1,2,834,-22.01084,-47.86918,25,0,50,
L,Apartamentos,Jardim Nova Santa Paula,Rua Américo Jacomino Canhoto,Padrão,223,,50,2,1,1,2,860,-21.99536,-47.90053,1,0,50,37.29
L,Apartamentos,Parque Arnold Schimidt,Rua Luiz Saia,Padrão,220,,50,2,2,1,3,1667,-22.00142,-47.90121,6,0,50,89.68
L,Apartamentos,Vila Prado,Avenida José Pereira Lopes,Padrão,333,,70,2,2,1,3,1112,-22.0222689,-47.9026411,48,1,70,
L,Casas,Jardim São Carlos,Rua Treze de Maio,Padrão,3263,40,40,1,1,0,1,778,-22.01849,-47.87829,38,0,,50
L,Comercial,Vila Monteiro (Gleba I),Rua São Joaquim,Salão,277,,220,,2,,,3000,-22.02417,-47.88864,36,1,220,120
L,Casas,Jardim Cardinalli,Rua Pastor Cyrus Basset Dawsey,Padrão,172,120,125,3,2,2,4,1778,-22.02291,-47.87302,149,1,,76
L,Casas,Jardim Botafogo 1,Rua Francisco Gregoracci,Padrão,210,100,180,2,1,2,2,1223,-22.02401,-47.91119,128,1,,40
L,Comercial,Vila Brasília,AV. ARARAQUARA,Galpão,1072,,860.44,,4,,,13334,-21.9963976,-47.8773669,24,1,717.85,
L,Casas,Loteamento Habitacional São Carlos 1,Rua João Schiavoni,Sobrado,125,50,50,1,1,1,1,834,-21.99508,-47.91781,65,1,,30
L,Casas,Vila Prado,RUA DOUTOR BERNARDINO DE CAMPOS,Padrão,352,100,100,3,1,2,3,1223,-22.0251,-47.9006,117,1,,
L,Casas,SANTA FELICIA,Rua Antônio Carlos Ferraz de Salles,Comercial,839,200,200,3,5,,4,3556,-21.9954929,-47.9209612,15,1,,300
L,Casas,Jardim Paraíso,RUA CONSELHEIRO JOÃO ALFREDO,Kitnet,250,30,30,1,1,1,1,700,-22.0077,-47.90137,75,1,,15
L,Comercial,SANTA FELICIA,Rua Antônio Carlos Ferraz de Salles,Barracão,839,,100,,2,,,2223,-21.9954929,-47.9209612,27,1,100,150
L,Casas,Centreville,Rua Antônio Rodrigues Cajado,Fundos,1112,100,130,2,1,,2,1000,-22.017959,-47.8836812,27,1,,
L,Casas,SANTA FELICIA,Rua Antônio Carlos Ferraz de Salles,Padrão,839,100,100,3,2,,4,1224,-29.35579,-60.21288,67,1,,150
L,Apartamentos,Jardim Gibertoni,RUA CORONEL CARLOS SIMPLICIO RODRIGUES,Padrão,75,,73.65,3,2,2,4,1200,-22.01937,-47.90758,165,1,73.65,95
L,Casas,Jardim Medeiros,Rua Marcolina Lima Machado,Padrão,240,40,40,1,1,1,1,556,-22.0381798,-47.9162344,82,0,,
L,Comercial,Jardim Bandeirantes,Rua Miguel Petroni,Sala,1455,,8.5,,1,,,667,-22.00177,-47.90452,18,0,8.5,
L,Comercial,Jardim Bandeirantes,Rua Miguel Petroni,Sala,1455,,6,,1,,,450,-22.00177,-47.90452,15,0,6,
L,Apartamentos,Jardim Hikari,Rua José Calijuri,Kitnet,258,,30,1,1,,1,940,-21.99375,-47.9007,14,0,30,
L,Apartamentos,Parque Faber Castell,Avenida dos Sanhaços,Padrão,901,,50,2,1,1,2,1334,-22.01498,-47.91203,60,1,50,
L,Casas,Jardim Ipanema,AV. OTTO WERNER ROSEL,Padrão,1111,70,150,2,1,1,2,1273,-21.98484,-47.93834,207,1,,29.39
L,Apartamentos,Centro,Rua Padre Teixeira,Padrão,1465,,68,2,2,2,3,2990,-22.01409,-47.89619,0,0,68,104.16
L,Apartamentos,Centro,Rua Padre Teixeira,Padrão,1680,,42,1,1,1,2,1667,-22.01429,-47.89414,53,0,42,48.72
L,Comercial,Jardim Brasil,Rua Jesuíno de Arruda,Salão,2610,,40,,2,1,,4112,-22.01953,-47.87941,38,1,40,155
L,Comercial,SANTA FELICIA,Rua Roberto de Jesus Affonso,Salão,500,,30,,1,0,,834,-22.00006,-47.91547,41,1,30,50
L,Casas,Residencial Samambaia,Rua Guilherme Orlando Sabino,Padrão,631,150,250,3,2,3,4,3290,-21.95363,-47.88613,144,0,,
L,Casas,Jardim São João Batista,Rua Juan Lopes,Padrão,1205,97,250,2,1,2,2,1000,-21.99967,-47.8779,195,0,,50
L,Casas,Centro,Rua José Bonifácio,Sobrado,787,120,150,3,2,2,3,2112,-22.0218317,-47.8937446,69,0,,
L,Casas,Jardim Medeiros,RUA ELEUTÉRIO MALERBA,Sobrado,136,200,200,4,2,2,5,1445,-22.03878,-47.91601,35,0,,35
L,Apartamentos,Jardim Ipanema,Rua Laura Villani Piovesan,Padrão,65,,45,2,1,1,2,778,-21.98694,-47.92543,77,0,45,
L,Casas,RESIDENCIAL ITAMARATI,RUA MAURO TOMAZI,Padrão,545,200,250,3,2,2,4,2800,-21.9993732,-47.8527449,156,0,,110
L,Casas,Vila Boa Vista 1,Rua Martim Luther King,Padrão,1511,120,150,2,2,1,3,1445,-22.0363,-47.90207,195,0,,85
L,Comercial,Jardim São Carlos,AV. COMENDADOR ALFREDO MAFFEI,Sala,1489,,600,,6,,,15000,-22.01709,-47.89791,18,0,600,600
L,Apartamentos,Jardim Paraíso,Rua Conselheiro Soares Brandão,Padrão,1104,,40,1,1,1,1,1112,-22.0069,-47.90074,29,0,40,
L,Comercial,Parque Novo Mundo,Rua José Nunes de Andrade,Galpão,856,,660,,2,6,,14445,-22.06636,-47.88315,20,0,660,190
L,Comercial,Centro,AV. AVENIDA SÃO CARLOS,Salão,2105,,1033,,5,11,,28000,-22.01478,-47.89088,29,0,1033,1256
L,Apartamentos,Cidade Jardim,Alameda das Azaleias,Padrão,801,,50,2,1,1,2,1112,-21.99659,-47.89236,165,0,50,50
SL,Casas,Jardim Beatriz,Rua Batista Laura Ricetti,Padrão,824,178.35,255,3,2,2,4,1889,-22.0362,-47.9105918,222,0,,45
L,Comercial,Centro,AV. AVENIDA SÃO CARLOS,Sala,2205,,60,,2,,,1200,-22.01396,-47.89089,27,0,60,80
L,Comercial,Centro,AV. AVENIDA SÃO CARLOS,Sala,2205,,30,,1,,,600,-22.01396,-47.89089,52,0,30,40
L,Comercial,Centro,AV. AVENIDA SÃO CARLOS,Sala,2205,,30,,1,,,600,-22.01396,-47.89089,36,0,30,40
L,Casas,Azulville I,Rua Visconde da Cunha Bueno,Padrão,154,130,250,2,2,1,2,1445,-22.02782,-47.86806,64,0,,90
L,Comercial,Jardim Jóckei Club A,Rua Rio Amazonas,Galpão,289,,150,,2,,,3500,-21.9845,-47.89988,28,0,150,66
L,Apartamentos,Romeu Santini,Rua Doutor Eufrauzino Moreira,Padrão,32,,50,2,1,1,2,667,-22.02483,-47.91583,70,0,50,
L,Apartamentos,Jardim Lutfalla,RUA JACINTO FAVORETO,Padrão,405,,36,1,1,,1,1556,-22.00606,-47.89415,82,0,36,50
L,Apartamentos,Jardim Gibertoni,Rua Humberto Manelli,Padrão,116,,70,2,2,3,3,1600,-22.0189672,-47.9061769,138,0,70,88
L,Comercial,Centro,Rua Conde do Pinhal,Ponto,3237,,180,,2,7,,4000,-22.01761,-47.87858,87,0,180,217
L,Apartamentos,Centro,Rua Sete de Setembro,Padrão,1257,,30,1,1,,1,1112,-22.0160814,-47.89808112,110,0,30,25
SL,Apartamentos,Jardim Bethânia,RUA ALDO POZZI,Padrão,1129,,50,2,2,1,3,1500,-22.01511,-47.90075,60,0,50,50
L,Casas,Vila Irene,RUA NICODEMO SENAPESCHI,Padrão,141,100,120,2,2,2,2,1223,-22.03095,-47.88458,188,0,,46
L,Apartamentos,Romeu Santini,Rua Joaquim Ninelli,Padrão,11,,45,1,1,1,1,690,-22.02585,-47.91514,115,0,45,
SL,Comercial,Centro,RUA AQUIDABAN,Sala,217,,187,,3,,,3000,-22.02234,-47.89467,46,0,200,76
L,Apartamentos,Jardim Gibertoni,Rua Humberto Manelli,Cobertura,200,,77.72,2,2,1,4,2500,-22.0187394,-47.9062841,204,0,77.72,101
L,Apartamentos,Parque Faber Castell,Avenida dos Sanhaços,Padrão,901,,70,2,2,1,2,1250,-22.01498,-47.91203,206,0,70,
L,Comercial,Jardim São Carlos,Rua Treze de Maio,Galpão,1267,,1000,,2,,,10000,-22.01876,-47.89765,50,0,1000,
L,Comercial,Centro,RUA MARECHAL DEODORO,Sala,1980,,30,,1,,,2300,-22.0152,-47.89116,93,0,30,45
L,Apartamentos,Centro,RUA SETE DE SETEMBRO,Padrão,1458,,50,2,1,1,2,1334,-22.01617,-47.89634,392,0,50,
L,Apartamentos,Cidade Jardim,RUA BERNARDINO FERNANDES NUNES,Padrão,1317,,48,2,,1,2,1334,-21.9927093,-47.891874,167,0,48,
L,Casas,Jardim São Carlos,AV. COMENDADOR ALFREDO MAFFEI,Padrão,1470,150,150,3,2,1,3,2500,-22.01713,-47.89824,79,0,,65
L,Comercial,Jardim São Carlos,Rua Treze de Maio,Sala,2415,,250,,2,2,,1667,-22.01863,-47.88659,35,0,250,120
L,Terreno,Vila Izabel,Rua Santa Clotilde,Padrão,430,,440,,,,,2223,-22.0358,-47.88403,27,0,,
L,Casas,Parque Fehr,RUA ENNÊS BUENO,Condomínio,335,275,275,2,2,4,3,2334,-21.97821,-47.93537,296,0,,70
L,Casas,Jardim Cruzeiro do Sul,Rua Francisco Marigo,Padrão,731,200,308,3,2,,4,1667,-22.0408,-47.89011,139,0,,
SL,Comercial,Jardim Jóckei Club A,Rua Rio Araguaia,Galpão,607,,1100.8,,2,,,5000,-21.98119,-47.90082,51,0,624,376.5
L,Casas,Planalto Paraíso,Rua José Missali,Kitnet,1155,30,30,1,1,1,1,778,-22.00244,-47.91951,213,0,,35
L,Casas,Jardim Bandeirantes,Rua José Palone,Padrão,327,150,150,3,2,2,4,2112,-22.00039,-47.91037,271,0,,85
L,Apartamentos,Vila Rancho Velho,Rua Theodolina Modena Coca,Padrão,85,,50,2,1,1,2,850,-22.01084,-47.86918,190,0,50,52
L,Casas,CENTRO,Rua Quinze de Novembro,Padrão,2724,140,250,3,3,2,5,4112,-22.01235,-47.88403,91,0,,315.53
L,Casas,Vila Boa Vista,Rua Francisco de Oliveira Penteado,Fundos,865,50,100,2,1,1,2,834,-22.03008,-47.90276,354,0,,
L,Comercial,Jardim de Cresci,Avenida Mário Gaspar,Barracão,393,,396,,2,,,5556,-22.027938,-47.8599264,74,0,396,198
L,Comercial,Parque Tecnológico Damha,Alameda Sinlioku Tanaka,Barracão,202,,2505.27,,4,,,73780,-21.95674,-47.89112,19,0,3689.46,3182
SL,Comercial,CENTRO,RUA RIACHUELO,Salão,662,,360,,3,6,,7000,-22.01654,-47.89563,133,0,250,
L,Apartamentos,Parque Santa Mônica,Avenida Tancredo de Almeida Neves,Padrão,573,,80,3,2,2,4,1445,-22.0199,-47.91258,138,0,80,68
L,Apartamentos,CENTRO,RUA QUINZE DE NOVEMBRO,Padrão,1526,,78,3,3,2,4,2778,-22.01249,-47.89568,98,0,78,250
L,Casas,Cidade Jardim,Alameda dos Miosótis,Padrão,171,250,360,4,2,4,4,2778,-22.00161,-47.89387,78,0,,200
L,Casas,Jardim Brasil,RUA TOTÓ LEITE,Padrão,2770,100,150,3,1,2,3,1334,,,209,0,,59.32
L,Apartamentos,Jardim Paraíso,RUA CONSELHEIRO JOÃO ALFREDO,Padrão,213,,35,1,1,,1,1000,-22.00793,-47.9011,164,0,35,120
L,Comercial,CENTRO,AV. DOUTOR CARLOS BOTELHO,Sala,2173,,100,,1,,,5540,-22.01126,-47.88941,98,0,100,150
SL,Apartamentos,Romeu Santini,Rua Aurea Jorge Vanelli,Padrão,1,,55,2,1,1,2,667,,,159,0,55,21
L,Casas,Jardim Jóckei Club A,Rua Rio Araguaia,Comercial,336,200,210,2,4,,2,2700,-21.98357,-47.89934,37,0,,21
L,Casas,Jardim Ipanema,AV. OTTO WERNER ROSEL,Condomínio,1455,75,75,2,1,1,2,945,-21.98484,-47.93834,645,0,,20
L,Comercial,Jardim Jóckei Club A,Rua Rio Araguaia,Barracão,336,,150,,3,,,2300,-21.98357,-47.89934,28,0,150,21
L,Casas,Jardim Jóckei Club A,Rua Rio Araguaia,Padrão,336,50,60,2,1,,2,889,-21.98357,-47.89934,152,0,,21
L,Casas,Jardim Centenário,RUA JORGE TIBIRIÇÁ,Padrão,105,180,250,2,2,2,3,1990,-21.99964,-47.90624,178,0,,84
SL,Casas,Jardim do Bosque,Luiz Gonzaga Grande Junior,Área de Lazer,137,70,253,1,1,6,1,1667,,,47,1,,
L,Apartamentos,Parque Faber Castell,Avenida dos Sanhaços,Padrão,901,,50,2,1,1,2,2400,-22.01498,-47.91203,120,0,50,
L,Apartamentos,Chácara Parollo,RUA SÃO SEBASTIÃO,Padrão,880,,92,2,2,2,3,5000,-22.01346,-47.90159,63,0,92,
L,Apartamentos,Centreville,Rua José Rodrigues Sampaio,Padrão,777,,109,3,3,1,4,3334,-22.0251349,-47.8821328,108,0,109,410
L,Apartamentos,Parque Fehr,Servidão de Passagem João Deriggi,Padrão,181,,54.62,2,1,1,2,1334,,,177,0,54.62,49
L,Casas,Jardim Jóckei Club A,Rua Ray Wesley Herrick,Condomínio,1501,300,250,4,4,2,5,6667,-21.97934,-47.89713,55,0,,
L,Casas,Condomínio Residencial Quebec,Avenida Professora Maria de Cresci Leopoldino,Condomínio,755,250,477.52,3,3,2,5,5000,,,100,0,,172.73
L,Comercial,CENTRO,Rua Quinze de Novembro,Sala,1811,,90,,1,,,3890,-22.0122151,-47.8930924,103,0,90,130
L,Casas,Jardim Ipanema,AV. OTTO WERNER ROSEL,Condomínio,1455,75,75,2,1,1,2,889,-21.98484,-47.93834,375,0,,
L,Apartamentos,Parque Faber Castell,Passeio das Palmeiras,Padrão,420,,70,2,2,1,3,4223,-22.01629,-47.91655,86,0,70,
L,Apartamentos,Jardim Ipanema,Rua Vereador Lucas Perroni Júnior,Kitnet,371,,35,1,1,,1,667,-21.98786,-47.93106,106,0,35,
L,Apartamentos,Jardim Ipanema,Rua Vereador Lucas Perroni Júnior,Kitnet,371,,30,1,1,,1,615,-21.98786,-47.93106,49,0,30,
L,Apartamentos,Jardim Ipanema,Rua Vereador Lucas Perroni Júnior,Padrão,371,,30,1,1,,1,615,-21.98786,-47.93106,37,0,30,
L,Comercial,Parque Santa Mônica,Rua Madre Saint Bernard,Sala,890,,13,,1,,,889,-22.00892,-47.90243,42,0,13,30
L,Comercial,Parque Santa Mônica,Rua Madre Saint Bernard,Sala,978,,18.33,,1,,,1334,-22.0077858,-47.9024532,22,0,18.33,30
L,Comercial,Jardim São Carlos,AV. COMENDADOR ALFREDO MAFFEI,Salão,1310,,580,,4,3,,16667,-22.017028,-47.9000159,15,0,580,
L,Apartamentos,Parque Fehr,Servidão de Passagem João Deriggi,Padrão,181,,50,2,1,1,2,734,,,128,0,50,43
L,Comercial,Jardim São João Batista,Rua Antônio Blanco,Salão,1415,,34,,1,,,910,-22.0032194,-47.8774694,45,0,,11
L,Apartamentos,Parque Faber Castell,Passeio das Palmeiras,Padrão,520,,59,2,2,1,3,2223,-22.01629,-47.91655,219,0,59,150
L,Apartamentos,Vila Pelicano,RUA ROBERTO SIMONSEN,Padrão,10,,47.52,2,1,1,2,1556,-22.02188,-47.89755,108,0,47.52,40
L,Comercial,Vila Conceição,Rua Narus Nishihara,Salão,123,,58,,1,,,900,-22.04752,-47.89232,41,0,58,38
SL,Comercial,Centro,Rua Padre Teixeira,Sala,1842,,130.72,,2,,,5000,-22.01427,-47.89258,33,0,110,130
L,Casas,Residencial Monsenhor Romeu Tortorelli,Avenida João Stella,Sobrado,51,162,162,2,1,2,2,1667,-22.00642,-47.92226,118,0,,72
L,Apartamentos,Jardim Brasil,Rua Eugênio Franco de Camargo,Padrão,1200,,49,2,2,1,3,2056,-22.02108,-47.87804,128,0,49,
L,Comercial,CENTRO,RUA SETE DE SETEMBRO,Prédio,1472,,525,,6,8,,16500,-22.0162116,-47.8963579,61,0,525,
L,Apartamentos,Jardim Paraíso,RUA PROF. NICOLETA STELLA GERMANO,Kitnet,57,,50,1,1,,1,889,-22.00516,-47.90103,159,0,50,35
L,Apartamentos,Jardim Paraíso,RUA PROF. NICOLETA STELLA GERMANO,Kitnet,57,,25,1,1,,1,778,-22.00516,-47.90103,117,0,25,35
L,Apartamentos,Jardim Paraíso,RUA PROF. NICOLETA STELLA GERMANO,Kitnet,57,,25,1,1,,1,778,-22.00516,-47.90103,65,0,25,35
L,Apartamentos,Jardim Paraíso,RUA PROF. NICOLETA STELLA GERMANO,Kitnet,57,,25,1,1,,1,778,-22.00516,-47.90103,39,0,25,35
L,Apartamentos,Jardim Paraíso,RUA PROF. NICOLETA STELLA GERMANO,Kitnet,57,,25,1,1,,1,778,-22.00516,-47.90103,38,0,25,35
L,Apartamentos,Jardim Paraíso,RUA PROF. NICOLETA STELLA GERMANO,Kitnet,57,,25,1,1,,1,778,-22.00516,-47.90103,36,0,25,35
SL,Casas,Vila São José,Rua Francisco Stella,Padrão,531,300,300,4,3,3,6,3334,-22.00247,-47.87513,116,1,,114
L,Apartamentos,Parque Santa Mônica,Avenida Tancredo de Almeida Neves,Padrão,457,,50,2,2,1,3,1500,-22.02074,-47.912,174,0,50,60
L,Apartamentos,Jardim Hikari,RUA VICENTE PETRILLI,Padrão,401,,45,2,1,1,2,889,-21.9931993,-47.901266,252,0,45,
L,Comercial,SANTA FELICIA,Rua Affonso Botelho de Abreu Sampaio,Salão,1051,,100,,2,,,1223,-21.99831,-47.91406,104,0,100,
L,Apartamentos,Cidade Jardim,RUA BERNARDINO FERNANDES NUNES,Padrão,1317,,47,2,1,1,2,1500,-21.9927093,-47.891874,287,0,47,
SL,Casas,Parque Tecnológico Damha,RUA MIGUEL DAMHA,Condomínio,1000,300,500,4,4,4,8,8889,-21.96392,-47.89699,52,0,,
L,Apartamentos,Residencial Monsenhor Romeu Tortorelli,Avenida João Stella,Padrão,480,,45,2,1,1,2,778,,,305,0,45,17
SL,Apartamentos,Cidade Jardim,RUA BERNARDINO FERNANDES NUNES,Padrão,1317,,48,2,1,1,2,1191,-21.9927093,-47.891874,449,0,48,0
L,Casas,Jardim Embaré,Rua Brasiliano Bento,Padrão,140,120,250,2,2,2,3,2556,-21.96636,-47.93684,359,0,,48
L,Apartamentos,Parque Faber Castell,Passeio das Palmeiras,Padrão,520,,59,2,2,1,3,1667,-22.01629,-47.91655,271,0,59,100
L,Casas,Vila Monteiro (Gleba I),Rua Rafael de Abreu Sampaio Vidal,Padrão,228,120,250,3,2,2,4,1778,-22.02667,-47.88256,355,0,,90
L,Casas,Parque Tecnológico Damha,RUA MIGUEL DAMHA,Condomínio,1000,150,300,3,4,,6,6112,-21.96392,-47.89699,137,0,,355
L,Apartamentos,Parque Faber Castell,Passeio das Palmeiras,Padrão,420,,64,2,2,2,3,3334,-22.01629,-47.91655,147,0,64,295
L,Apartamentos,Cidade Jardim,RUA BERNARDINO FERNANDES NUNES,Padrão,1317,,48,2,1,1,2,1300,-21.9927093,-47.891874,140,0,48,
L,Casas,Jardim Bandeirantes,Rua Alexandre Ranciaro,Padrão,300,181.4,244,3,2,1,4,2223,-22.0016,-47.91049,364,0,,108.08
L,Apartamentos,Jardim das Torres,RUA DOUTOR ANTÔNIO STELLA MORUZZI,Padrão,300,,40,2,1,1,2,889,-22.0335399,-47.911186,135,0,40,42
L,Apartamentos,Parque Faber Castell,Passeio das Magnólias,Padrão,345,,76,2,2,2,3,2556,,,131,0,76,328
L,Casas,Parque Delta,RUA PROFESSOR ABÍLIO RODRIGUES,Padrão,161,60,100,2,1,2,2,1112,-21.98891,-47.89739,279,0,,29
L,Apartamentos,Residencial Monsenhor Romeu Tortorelli,Avenida João Stella,Padrão,200,,50,2,1,1,2,889,-22.00539,-47.92306,89,0,50,43
L,Apartamentos,Parque Arnold Schimidt,RUA MIGUEL ALVES MARGARIDO,Padrão,280,,45,2,2,1,2,2778,-22.0031159,-47.8949527,154,0,45,134
L,Apartamentos,Parque Faber Castell,Avenida dos Sanhaços,Padrão,901,,45,2,1,1,2,1112,-22.01498,-47.91203,288,1,45,
L,Apartamentos,Cidade Jardim,RUA BERNARDINO FERNANDES NUNES,Padrão,1317,,48,2,1,1,2,1550,-21.9927093,-47.891874,70,0,48,
L,Apartamentos,Cidade Jardim,RUA BERNARDINO FERNANDES NUNES,Padrão,1317,,48,2,1,1,2,1450,-21.9927093,-47.891874,80,0,48,
L,Apartamentos,Cidade Jardim,RUA BERNARDINO FERNANDES NUNES,Padrão,1317,,48,2,1,1,2,1450,-21.9927093,-47.891874,54,0,48,
L,Comercial,Jardim Hikari,RUA EUGÊNIO GALUCCI,Barracão,101,,250,,2,4,,3889,-21.98894,-47.8984,36,0,200,211
L,Comercial,Jardim Hikari,RUA EUGÊNIO GALUCCI,Salão,101,,50,,1,,,1112,-21.98894,-47.8984,43,0,50,100
L,Comercial,Jardim Hikari,RUA EUGÊNIO GALUCCI,Barracão,101,,300,,2,4,,5000,-21.98894,-47.8984,30,0,250,300
L,Apartamentos,Vila Rancho Velho,Rua Theodolina Modena Coca,Padrão,85,,60,2,1,,2,1112,-22.01084,-47.86918,131,0,60,35
L,Apartamentos,Centro,Avenida São Carlos,Padrão,2724,,98,3,2,1,3,1800,-22.00906,-47.89073,365,0,98,185
L,Apartamentos,Jardim Paulistano,Rua Iwagiro Toyama,Padrão,680,,70,2,2,,2,1612,-21.99249,-47.89733,116,0,70,96
L,Apartamentos,Parque Faber Castell,Passeio das Magnólias,Padrão,345,,76,3,2,2,4,3000,,,619,0,76,275
L,Apartamentos,Jardim Lutfalla,RUA SALOMÃO DIBBO,Flat,321,,40,1,1,1,1,2000,-22.00443,-47.89592,78,0,40,
L,Apartamentos,Cidade Jardim,RUA BERNARDINO FERNANDES NUNES,Padrão,1317,,48,2,1,1,2,1112,-21.9927093,-47.891874,336,0,48,
L,Casas,Vila Boa Vista,Rua Luiz Carlos de Arruda Mendes,Padrão,534,200,240,3,1,2,3,1834,-22.02698,-47.90666,270,0,,
L,Casas,Vila Boa Vista,Rua Doutor Gastão de Sá,Fundos,617,40,100,1,1,,1,667,-22.02722,-47.90147,386,0,,10.5
L,Casas,Vila Brasília,Rua Chile,Kitnet,377,35,35,1,1,,1,889,-21.9966414,-47.8823685,163,0,,34
SL,Casas,Jardim Santa Paula,Avenida Eliza Gonzales Rabello,Condomínio,550,135,140,3,4,2,6,2350,-21.99672,-47.90195,147,0,,140
SL,Casas,Jardim Santa Paula,Avenida Eliza Gonzales Rabello,Condomínio,550,135,140,3,4,2,6,2350,-21.99672,-47.90195,70,0,,140
SL,Casas,Jardim Santa Paula,Avenida Eliza Gonzales Rabello,Condomínio,550,135,140,3,4,2,6,2400,-21.99672,-47.90195,44,0,,140
SL,Casas,Jardim Santa Paula,Avenida Eliza Gonzales Rabello,Condomínio,550,135,140,3,4,2,6,2450,-21.99672,-47.90195,40,0,,140
SL,Casas,Jardim Santa Paula,Avenida Eliza Gonzales Rabello,Condomínio,550,135,140,3,4,2,6,2450,-21.99672,-47.90195,37,0,,140
SL,Casas,Jardim Santa Paula,Avenida Eliza Gonzales Rabello,Condomínio,550,135,140,3,4,2,6,2400,-21.99672,-47.90195,32,0,,140
SL,Casas,Jardim Santa Paula,Avenida Eliza Gonzales Rabello,Condomínio,550,135,140,3,4,2,6,2150,-21.99672,-47.90195,117,0,,140
SL,Casas,Jardim Santa Paula,Avenida Eliza Gonzales Rabello,Condomínio,550,135,140,3,4,2,6,2150,-21.99672,-47.90195,53,0,,140
SL,Casas,Jardim Santa Paula,Avenida Eliza Gonzales Rabello,Condomínio,550,135,140,3,4,2,6,2150,-21.99672,-47.90195,63,0,,140
SL,Casas,Jardim Santa Paula,Avenida Eliza Gonzales Rabello,Condomínio,550,135,140,3,4,2,6,2200,-21.99672,-47.90195,25,0,,140
SL,Casas,Jardim Santa Paula,Avenida Eliza Gonzales Rabello,Condomínio,550,135,140,3,4,2,6,2200,-21.99672,-47.90195,50,0,,140
SL,Casas,Jardim Santa Paula,Avenida Eliza Gonzales Rabello,Condomínio,550,135,140,3,4,2,6,2270,-21.99672,-47.90195,23,0,,140
SL,Casas,Jardim Santa Paula,Avenida Eliza Gonzales Rabello,Condomínio,550,135,140,3,4,2,6,2270,-21.99672,-47.90195,50,0,,140
L,Apartamentos,Jardim Macarengo,Rua Adolfo Catani,Padrão,582,,35,1,1,,1,1112,-22.00695,-47.89187,330,0,35,47.78
SL,Apartamentos,Cidade Jardim,RUA BERNARDINO FERNANDES NUNES,Padrão,1317,,47,2,1,1,2,1270,-21.9927093,-47.891874,261,0,47,
SL,Casas,Centro,RUA SETE DE SETEMBRO,Padrão,1542,272,320,6,4,4,6,2690,-22.01616,-47.89547,118,1,,133
L,Terreno,Vila Jacobucci,Rua Antônio Rogano,Comercial,191,167.36,989.25,,,,,2500,-22.0065676,-47.8725278,28,0,,187
L,Casas,Vila Prado,Rua Antônio de Almeida Leite,Sobrado,510,92,139,2,1,,2,2667,-22.02666,-47.89972,160,0,,70
SL,Apartamentos,Jardim Jóckei Club A,Rua Ray Wesley Herrick,Padrão,475,,50,2,1,1,2,900,-21.98461,-47.89507,388,0,50,33
L,Apartamentos,Jardim Paraíso,Rua Princesa Isabel,Padrão,324,,62,2,2,1,3,2223,-22.01047,-47.90002,203,0,62,80
L,Apartamentos,Parque Santa Mônica,Avenida Tancredo de Almeida Neves,Padrão,457,,60,2,1,1,2,1400,,,206,0,60,60
SL,Apartamentos,Jardim São Carlos,RUA JESUÍNO DE ARRUDA,Padrão,1365,,55,2,1,1,2,778,-22.01971,-47.89757,210,0,55,65
L,Comercial,Jardim Ricetti,Rua Luiz Roher,Galpão,1178,,532.63,,4,2,,8889,-22.02794,-47.87368,183,0,451.7,482
L,Casas,MARIA STELLA FAGA,Avenida João de Lourenço,Padrão,657,180,180,2,2,4,2,1600,-22.00138,-47.85691,551,0,,100
L,Apartamentos,Parque Arnold Schimidt,Rua Thomaz Antônio Gonzaga,Padrão,85,,60,2,1,1,2,889,-22.00171,-47.89754,571,0,60,61.42
L,Comercial,SÃO JOÃO BATISTA,Rua Mariano Garcia Carrasco,Barracão,654,,115,,2,1,,2389,-22.00177,-47.8763,212,0,115,
L,Casas,RESIDENCIAL ITAMARATI,Rua Augusto Maria Patrizzi,Padrão,150,185,250,3,1,2,3,2000,-22.00337,-47.85367,325,0,,142.44
SL,Casas,Cidade Jardim,RUA DOS CRAVOS,Comercial,80,250,360,3,3,3,5,6112,-21.99744,-47.89495,109,0,,192
L,Apartamentos,Parque Faber Castell,Avenida dos Sanhaços,Padrão,901,,50,2,1,1,2,1445,-22.01498,-47.91203,268,0,50,80
L,Casas,MARIA STELLA FAGA,Avenida João de Lourenço,Padrão,789,200,70,2,1,1,2,1445,-21.9998666,-47.8569049,148,0,,68
L,Apartamentos,Parque Faber Castell,Passeio das Palmeiras,Padrão,420,,79,3,2,2,4,3500,-22.01629,-47.91655,444,0,79,306.14
SL,Casas,Jardim Embaré,Rua Orlando de Oliveira,Padrão,90,200,200,3,3,2,4,3000,-21.97176,-47.93553,258,0,,130
L,Casas,Jardim Alvorada,Rua Luiz Barbosa de Campos,Sobrado,515,241,300,3,2,2,4,4667,-22.00734,-47.9064,139,0,,280
SL,Casas,Conjunto Habitacional Dom Constantino Amstalden,Rua Hend Cury,Padrão,173,150,150,3,2,2,4,1445,,,673,0,,
L,Apartamentos,Parque Faber Castell,Avenida dos Sanhaços,Padrão,901,,46,2,1,1,2,1056,-22.01498,-47.91203,349,0,46,
L,Comercial,CENTRO,AV. DOUTOR CARLOS BOTELHO,Sala,1291,,20,,1,,,1700,-22.01144,-47.8924,77,0,20,80
L,Comercial,CENTRO,AV. DOUTOR CARLOS BOTELHO,Sala,1291,,20,,1,,,1700,-22.01144,-47.8924,52,0,20,80
L,Apartamentos,Parque Faber Castell,Avenida dos Sanhaços,Padrão,901,,45,2,1,1,2,1330,-22.01498,-47.91203,271,0,45,80
L,Casas,Jardim Beatriz,Rua Francisco Schiavone,Fundos,4,40,60,1,1,,1,778,-22.03638,-47.90592,226,0,,
SL,Casas,Jardim Cruzeiro do Sul,Rua Francisco Marigo,Padrão,1549,133.21,368,2,2,2,3,1334,-22.04879,-47.88577,281,0,,83
SL,Casas,Parque Santa Mônica,Rua Madre Saint Bernard,Padrão,383,400,600,4,4,6,6,6000,-22.01323,-47.9027,171,0,,
L,Casas,CENTRO,Rua José Bonifácio,Padrão,1681,80,125,2,1,,2,2223,-22.01377,-47.89388,240,0,,109
SL,Rural,Broa,rua particular 16,Chácara,75,141,,3,1,,3,2223,,,105,0,,177
SL,Casas,Vila Boa Vista,Rua João Cristofaro dos Reis,Padrão,52,180,251.5,3,4,4,5,2000,-22.02546,-47.90478,249,0,,90
L,Apartamentos,Cidade Jardim,RUA BERNARDINO FERNANDES NUNES,Padrão,1317,,48,2,1,1,2,1445,-21.99825,-47.89152,34,0,48,
L,Apartamentos,Jardim Bandeirantes,Rua Miguel Petroni,Padrão,1455,,40,1,1,,1,1278,-22.00177,-47.90452,114,0,40,
L,Comercial,Loteamento Habitacional São Carlos 1,RUA DOUTOR PROCÓPIO TOLEDO MALTA,Salão,887,,86,,1,,,1334,-21.99418,-47.92027,62,0,86,50
L,Casas,Jardim Nova São Carlos,RUA JOSÉ MORASCHI,Padrão,347,80,150,2,1,1,2,1223,,,151,0,,80
L,Casas,Vila Monteiro (Gleba I),Rua São Joaquim,Padrão,1860,130,200,3,1,1,3,2223,-22.00992,-47.88879,144,0,,50
L,Casas,VILA MONTEIRO,Rua Rui Barbosa,Padrão,138,300,300,3,3,3,4,3334,-22.0259,-47.88648,87,0,,137
L,Comercial,CENTRO,RUA AQUIDABAN,Salão,859,,250,,2,1,,1667,-22.01654,-47.89484,183,0,180,60
L,Casas,Vila Prado,Avenida Teixeira de Barros,Sobrado,805,175,225,4,3,1,4,2667,-22.02832,-47.89673,58,0,,217
L,Casas,Vila Prado,Avenida Teixeira de Barros,Sobrado,805,150,200,4,3,1,4,1889,-22.026659,-47.8978497,113,0,,18
L,Comercial,Jardim Brasil,Rua Jesuíno de Arruda,Sala,2610,,25,,1,0,,1312,-22.01953,-47.87941,123,0,25,48
L,Apartamentos,Jardim Paraíso,Rua Princesa Isabel,Padrão,324,,65,2,2,1,3,2778,-22.01047,-47.90002,238,0,65,73
L,Casas,Cidade Jardim,Al DAS HORTÊNCIAS,Padrão,60,60,150,2,1,,2,1500,-22.00215,-47.89438,366,0,,71.65
L,Apartamentos,Jardim São Carlos,RUA JESUÍNO DE ARRUDA,Padrão,1968,,74,2,2,1,2,1500,-22.0198,-47.89186,239,0,74,97
L,Apartamentos,CENTRO,Avenida São Carlos,Padrão,2724,,98,3,2,1,3,2000,-22.00906,-47.89073,419,0,98,190
SL,Casas,Centreville,Rua Antônio Rodrigues Cajado,Padrão,1383,150,100,3,2,2,4,2000,-22.01641,-47.88394,187,0,,72
L,Apartamentos,Jardim Paraíso,RUA MAESTRO JOÃO SEPPE,Padrão,410,,150,4,2,2,5,2445,-22.01287,-47.90173,146,0,150,349
L,Casas,Jardim Nova São Carlos,Rua Orlando Marques,Padrão,200,150,100,2,2,2,3,3500,-22.03231,-47.87226,87,0,,81.17
L,Casas,Condomínio Residencial Quebec,Avenida Professora Maria de Cresci Leopoldino,Condomínio,755,181,300,3,2,2,4,5112,,,184,0,,176.71
L,Casas,Jardim Paraíso,RUA ALICE J. DANNA JULIANA,Comercial,44,,300,,3,10,,5556,-22.00591,-47.90103,65,0,,340
SL,Casas,Centreville,Rua Antônio Rodrigues Cajado,Padrão,1373,150,100,3,2,2,4,2000,-22.01652,-47.88394,172,0,,72
SL,Apartamentos,Recreio São Judas Tadeu,Avenida Gregório Aversa,Padrão,371,,55,2,1,1,2,1223,-22.03312,-47.86755,124,0,55,44
L,Comercial,Vila Costa do Sol,RUA ANTÔNIO BLANCO,Sala,138,,179,0,2,0,0,4223,-22.0023708,-47.8897297,50,0,179,70
SL,Casas,Jardim Ipanema,AV. OTTO WERNER ROSEL,Condomínio,1455,,100,2,1,2,2,1223,-21.98484,-47.93834,274,0,,22
L,Apartamentos,Jardim Gibertoni,RUA CORONEL CARLOS SIMPLICIO RODRIGUES,Padrão,136,,51,2,1,1,2,1334,-22.01849,-47.90788,516,0,51,50
L,Casas,SÃO JOÃO BATISTA,Rua Rafael de Senzi,Padrão,26,120,125,2,1,1,2,1667,-22.00537,-47.87892,264,0,,46
L,Casas,Portal do Sol,Rua Doutor Omar Pacheco Souza,Padrão,293,120,150,3,2,2,4,2000,-22.02466,-47.8724,691,0,,95
L,Apartamentos,Vila Prado,Avenida José Pereira Lopes,Padrão,333,,55,2,2,2,3,1300,-22.0222689,-47.9026411,393,0,55,80
SL,Comercial,Jardim Cruzeiro do Sul,Rua Francisco Marigo,Galpão,841,,308,,3,9,,2612,-22.04251,-47.88915,103,0,181.72,
SL,Apartamentos,Recreio São Judas Tadeu,AV. GETÚLIO VARGAS,Padrão,2475,,47,2,1,1,2,889,-22.0350361,-47.8680662,429,0,47,48
SL,Comercial,CENTRO,Avenida São Carlos,Ponto,1590,,88,,2,,,2800,-22.01935,-47.89051,77,0,88,
L,Apartamentos,Jardim Lutfalla,Rua Cézar Ricomi,Padrão,217,,44,2,2,,3,1389,-22.0049351,-47.8915192,492,0,44,
L,Apartamentos,Parque Faber Castell,Avenida dos Sanhaços,Padrão,901,,55,2,1,1,2,1112,-22.01498,-47.91203,790,0,55,30
L,Comercial,Jardim Ipanema,Avenida Romualdo Villani,Salão,458,,36,,1,,,1223,-21.98834,-47.92968,131,0,36,
L,Comercial,Parque Faber Castell,Passeio das Castanheiras,Sala,431,,45,0,1,1,0,1556,,,107,0,45,100
L,Apartamentos,Vila Monteiro (Gleba I),Rua Belarmino Indalécio de Souza,Padrão,255,,66,3,2,1,4,1223,-22.02418,-47.88808,262,0,66,43
L,Apartamentos,Vila Prado,Avenida José Pereira Lopes,Padrão,333,,55,2,2,1,3,1617,-22.0222689,-47.9026411,403,0,55,80
SL,Comercial,CENTRO,Rua Nove de Julho,Salão,982,,80,,1,,,3889,-22.0212,-47.89248,98,0,80,100
L,Apartamentos,Jardim Alvorada,Rua Doutor Domingos Faro,Padrão,102,,70,2,1,1,2,1334,-22.00966,-47.90838,491,0,70,75
L,Apartamentos,Centro,Rua Padre Teixeira,Padrão,1370,,,2,2,1,3,1690,-22.01428,-47.89704,339,0,60,60
L,Comercial,Vila Brasília,Rua Chile,Salão,275,,120,,2,,,3334,-21.9965923,-47.8819871,56,0,100,50
L,Comercial,CENTRO,RUA MAJOR JÚLIO SALLES,Sala,593,,200,,2,3,,2223,,,142,0,,107
L,Comercial,CENTRO,RUA MAJOR JOSÉ INÁCIO,Salão,1619,,230,,2,2,,3000,-22.01685,-47.89463,127,0,230,71
SL,Apartamentos,Parque Fehr,Servidão de Passagem João Deriggi,Padrão,181,,50,2,1,1,2,1445,,,162,0,50,45
SL,Apartamentos,Parque Faber Castell,Passeio das Palmeiras,Padrão,420,,79,2,2,2,3,5000,,,326,0,79,220
L,Comercial,Jardim Paraíso,RUA DONA MARIA JACINTA,Sala,224,,15.91,,1,,,1112,-22.0085851,-47.9004333,136,0,15.91,
L,Apartamentos,Jardim Jóckei Club A,Rua Ray Wesley Herrick,Padrão,135,,70,3,1,,3,1112,-21.98595,-47.89465,391,0,70,38.7
L,Casas,Parque Industrial,Rua Doutor Alberto Cattani,Padrão,100,120,100,1,1,1,1,778,-21.98916,-47.90292,216,0,,34
L,Casas,Cidade Jardim,Alameda das Azaleias,Kitnet,150,30,30,1,1,0,1,723,-22.00204,-47.89285,341,0,,0
SL,Casas,Jardim Bicão,Rua Manoel Dias,Padrão,201,140,200,3,2,1,3,2000,-22.0287,-47.91169,515,0,,141
L,Casas,MARIA STELLA FAGA,RUA JOÃO BATISTA CARRI,Padrão,37,80,150,2,1,2,2,1112,-21.99866,-47.85648,380,0,,20
SL,Apartamentos,Distrito Industrial Miguel Abdelnur,Av. DR. HEITOR JOSE REALI,Padrão,1031,,48.2,2,1,1,2,1112,,,180,0,48.2,40
SL,Comercial,CEAT,RUA ALDO GEMANO KLEIN,Galpão,202,,2700,,3,,,38889,-22.0687956,-47.8799641,88,0,1000,1400
L,Comercial,Jardim Brasil,RUA MONTEIRO LOBATO,Galpão,1601,,230,,2,,,3500,-22.01712,-47.87709,116,0,230,230
L,Comercial,Jardim Macarengo,Rua Campos Salles,Sala,918,,20,,1,0,,889,-22.01917,-47.88464,98,0,20,
L,Comercial,Jardim Ricetti,RUA MAJOR MANOEL ANTÔNIO DE MATTOS,Barracão,1186,,153,,2,4,,5000,-22.0183788,-47.8810169,104,0,153,100
SL,Comercial,CENTRO,Rua José Bonifácio,Prédio,849,,1820,,6,30,,30000,-22.02128,-47.89373,87,0,920,
L,Comercial,JARDIM REAL,Rua Pascoal Mecca,Salão,105,,54,,2,,,1223,-22.0027514,-47.8728092,215,0,54,
SL,Casas,Vila Boa Vista 1,Rua Capitão Manoel Alves Carneiro,Padrão,855,142,142,2,2,2,3,1112,-22.0363386,-47.902523,241,0,,
L,Comercial,Vila Prado,Rua Cidade de Milão,Barracão,434,,360,,2,,,2223,-22.0318952,-47.8964137,198,0,360,60
L,Comercial,SANTA FELICIA,Rua Alberto Lanzoni,Loja,127,,80,,2,,,3800,-22.0009875,-47.9130205,129,0,80,
L,Comercial,SANTA FELICIA,Rua Alberto Lanzoni,Loja,127,,80,,2,,,3800,-22.0009875,-47.9130205,128,0,80,
SL,Apartamentos,Jardim Santa Paula,Rua José Duarte de Souza,Padrão,372,,52,1,1,,1,1500,-21.998228,-47.9004658,244,0,40,28
L,Comercial,Vila Boa Vista 1,Rua Henrique Gregori,Salão,446,,150,,4,0,,2226,-22.03561,-47.90115,56,0,150,100
SL,Casas,Jardim Mercedes,RUA ALFEO AMBROGIO,Padrão,770,450,450,3,3,4,4,3334,-22.02981,-47.88231,123,0,,150
L,Casas,Vila Prado,Rua Desembargador Júlio Faria,Padrão,696,350,700,3,4,7,5,6667,-22.03188,-47.90049,123,0,,580
SL,Casas,Cidade Jardim,Al DOS NARCISOS,Padrão,97,125,180,2,2,2,2,1800,-21.99725,-47.89371,385,0,,137
L,Comercial,CENTRO,RUA MARECHAL DEODORO,Sala,2452,,110,,2,,,3500,-22.01509,-47.88664,66,0,110,
SL,Casas,Centro,RUA RIACHUELO,Padrão,795,108.64,133.7,2,2,1,2,1800,-22.01538,-47.89586,421,0,,67
L,Casas,Vila São José,RUA JOÃO SEBA VASSELIADES,Padrão,60,60,120,1,1,,1,889,-22.00731,-47.87412,138,0,,
L,Comercial,CENTRO,RUA SETE DE SETEMBRO,Sala,3512,,234.82,,3,4,,3000,-22.01587,-47.87624,156,0,163.94,
SL,Comercial,Vila Brasília,RUA LUIZ LÁZARO ZAMENHOF,Barracão,670,,4735.1,,2,,,25000,-22.0017748,-47.8703423,124,0,809,
L,Casas,Jardim Santa Paula,Rua Virgílio Pozzi,Padrão,42,200,300,3,2,2,4,4445,-22.00186,-47.90332,116,0,,315.47
L,Comercial,SANTA FELICIA,Rua Alberto Lanzoni,Salão,127,,80,,2,2,,3889,-22.0009875,-47.9130205,45,0,80,
SL,Casas,Parque Faber Castell,OUT DOS CURIÓS,Condomínio,172,350,350,5,5,4,9,6112,,,362,0,,250
L,Casas,Cidade Jardim,Alameda das Papoulas,Padrão,59,180,360,3,2,2,4,2334,-22.00206,-47.89534,306,0,,120
SL,Apartamentos,Cidade Jardim,RUA BERNARDINO FERNANDES NUNES,Padrão,1317,,50,2,1,1,2,1500,-21.99825,-47.89152,183,0,50,
L,Apartamentos,Cidade Jardim,RUA BERNARDINO FERNANDES NUNES,Padrão,1317,,50,2,1,1,2,1500,-21.99825,-47.89152,88,0,50,
L,Comercial,Cidade Aracy,Avenida José Antônio Migliato,Galpão,724,,300,,2,,,3334,-22.0600827,-47.8927347,68,0,170,40
L,Comercial,Cidade Aracy,Avenida José Antônio Migliato,Galpão,724,,300,,2,,,3334,-22.056599,-47.8951204,38,0,170,40
L,Comercial,Cidade Aracy,Avenida José Antônio Migliato,Galpão,724,,300,,2,,,3334,-22.056599,-47.8951204,40,0,175,40
L,Comercial,Cidade Aracy,Avenida José Antônio Migliato,Galpão,724,,300,,2,,,3334,-22.056599,-47.8951204,37,0,175,40
L,Casas,Vila Brasília,Rua Chile,Padrão,132,185,335,3,3,4,5,3500,-21.99715,-47.88168,119,0,,0
L,Comercial,Parque Faber Castell,Passeio das Castanheiras,Sala,431,,44,,1,1,,1334,,,60,0,44,109.74
L,Casas,JOCKEY CLUBE,RUA RIO GRANDE,Kitnet,570,35,35,1,1,0,1,756,-21.98319,-47.89583,147,0,,0
L,Comercial,Jardim Centenário,RUA JORGE TIBIRIÇÁ,Barracão,282,,170,,2,,,1445,-21.99824,-47.90527,118,0,170,50
L,Apartamentos,Jardim Embaré,Rua Ray Wesley Herrick,Padrão,5441,,50,2,1,1,2,1112,-21.9751112,-47.9332665,147,0,50,50
L,Comercial,CENTRO,RUA QUINZE DE NOVEMBRO,Sala,1789,,150,,1,,,3500,-22.01224,-47.89314,233,0,150,104.66
L,Industrial,CEAT,Rua Giácomo Nutti,Galpão,680,,5400,,5,,,28889,-22.0748538,-47.8844492,199,0,1750,1955.45
L,Casas,VILA MONTEIRO,Rua São Paulo,Padrão,903,120,120,2,1,2,2,1334,-22.01903,-47.88582,447,0,,60
L,Casas,Jardim Cruzeiro do Sul,RUA GUADALAJARA,Padrão,10,100,100,1,1,1,1,1112,-22.03929,-47.88794,183,0,,40
SL,Casas,Cidade Jardim,Al DAS CRISANDÁLIAS,Padrão,635,243.09,360,3,2,2,4,3334,-22.00271,-47.894,196,0,,140
L,Comercial,CENTRO,AV. DOUTOR CARLOS BOTELHO,Prédio,2140,,1756.7,0,4,60,0,25000,-22.01144,-47.8924,55,0,,
SL,Comercial,CENTRO,Rua Major José Inácio,Salão,2490,,400,0,4,4,0,6445,-22.01694,-47.8862,226,0,400,150
L,Comercial,Parque Novo Mundo,Rua Vanderlei Quelé de Lima,Galpão,67,,600,,3,,,12223,-22.06466,-47.88702,37,0,600,89
L,Comercial,Centreville,RUA JOSÉ RODRIGUES SAMPAIO,Sala,361,,100,,2,,,1778,-22.02504,-47.8861,192,0,100,50
SL,Apartamentos,Jardim Paraíso,RUA PROF. NICOLETA STELLA GERMANO,Padrão,60,,70,2,2,1,3,1560,-22.00538,-47.90096,301,0,70,159
L,Comercial,VILA MONTEIRO,Rua Oswaldo Cruz,Sala,48,,40,,1,,,1000,-22.0256,-47.89013,101,0,40,
L,Apartamentos,CENTRO,Rua Vinte e Oito de Setembro,Cobertura,2350,,130,3,2,,4,3500,-22.01053,-47.88775,260,0,130,280
L,Comercial,SANTA FELICIA,Rua Alberto Lanzoni,Sala,127,,80,,2,,,3889,-22.0009875,-47.9130205,51,0,80,
L,Comercial,SANTA FELICIA,Rua Alberto Lanzoni,Sala,127,,80,,2,,,3889,-22.0009875,-47.9130205,42,0,80,
L,Comercial,SANTA FELICIA,Rua Alberto Lanzoni,Sala,127,,80,,2,,,3889,-22.0009875,-47.9130205,44,0,80,
L,Comercial,SANTA FELICIA,Rua Alberto Lanzoni,Sala,127,,80,,2,,,3889,-22.0009875,-47.9130205,41,0,80,
L,Comercial,SANTA FELICIA,Rua Alberto Lanzoni,Sala,127,,80,,2,,,3889,-22.0009875,-47.9130205,60,0,80,
L,Casas,Loteamento Habitacional São Carlos 1,RUA DOUTOR PROCÓPIO TOLEDO MALTA,Padrão,875,39,39,1,1,,1,889,-21.9943,-47.92006,119,0,,50
L,Comercial,SANTA FELICIA,Rua Affonso Botelho de Abreu Sampaio,Salão,1009,,80,,1,,,2000,-21.99831,-47.91406,98,0,80,0
L,Comercial,Vila Costa do Sol,Rua Campos Sales,Salão,2761,,60,,1,,,1000,-22.00192,-47.88519,130,0,60,
L,Comercial,SANTA FELICIA,Rua Alberto Lanzoni,Sala,127,,80,,2,,,3889,-22.0009875,-47.9130205,48,0,80,
L,Comercial,SANTA FELICIA,Rua Alberto Lanzoni,Sala,127,,80,,2,,,3889,-22.0009875,-47.9130205,45,0,80,
L,Comercial,SANTA FELICIA,Rua Alberto Lanzoni,Sala,127,,80,,2,,,3889,-22.0009875,-47.9130205,57,0,80,
L,Comercial,SANTA FELICIA,Rua Alberto Lanzoni,Sala,127,,80,,2,,,3889,-22.0009875,-47.9130205,46,0,80,
L,Comercial,SANTA FELICIA,Rua Alberto Lanzoni,Sala,127,,80,,2,,,3889,-22.0009875,-47.9130205,47,0,80,
L,Comercial,SANTA FELICIA,Rua Alberto Lanzoni,Sala,127,,80,,2,,,3889,-22.0009875,-47.9130205,59,0,80,
L,Comercial,SANTA FELICIA,Rua Alberto Lanzoni,Sala,127,,80,,2,,,3889,-22.0009875,-47.9130205,40,0,80,
L,Casas,Vila Boa Vista,Rua Benjamin Constant,Padrão,378,230,250,3,1,2,3,1000,-22.02795,-47.90369,462,0,,90
L,Apartamentos,Jardim Bethânia,Rua Victor Manuel de Souza Lima,Padrão,297,,110,3,2,1,3,1560,-22.01396,-47.89963,517,0,110,156.5
SL,Apartamentos,Jardim Brasil,Rua Eugênio Franco de Camargo,Padrão,1200,,49,2,2,1,3,2300,-22.02108,-47.87804,566,0,49,42
L,Comercial,Parque Industrial,RUA ERNESTINO BLOCK,Galpão,320,,300,,2,,,3889,-21.9875,-47.90069,88,0,220,210
L,Comercial,Jardim Hikari,AV. ÍTALO PAINO,Galpão,620,,300,,1,,,3889,,,111,0,300,245
L,Casas,Centreville,Rua Santa Cruz,Padrão,979,150,250,3,2,2,3,3334,-22.02319,-47.88525,83,0,,315
SL,Casas,Vila São José,Rua Hipólito José da Costa,Padrão,561,159.44,250,3,1,3,3,1780,-22.0022817,-47.8746373,274,0,,75
L,Terreno,Parque Faber Castell,OUT DAS QUARESMEIRAS,Comercial,0,,1300,,,,,10000,,,51,0,,715.37
L,Casas,Vila Costa do Sol,Rua José de Alencar,Sobrado,656,160,250,3,2,1,3,1600,-22.00314,-47.8858,597,0,,57
L,Comercial,Cidade Aracy,Rua Maria das Graças Tagliatella Custódio,Barracão,141,,250,,2,,,2778,-22.062,-47.89472,61,0,220,
L,Casas,Centreville,Rua Santa Cruz,Padrão,884,80,125,2,1,1,2,1223,-22.02336,-47.88608,420,0,,60
L,Casas,Jardim São Carlos,Rua Geminiano Costa,Padrão,1273,70,150,2,1,,2,1350,-22.02042,-47.88482,409,0,,
SL,Terreno,Centro,Rua José Bonifácio,Comercial,959,,800,,,,,3334,-22.02033,-47.89383,137,0,,600
L,Apartamentos,Vila Brasília,Rua Peru,Padrão,144,,40,2,1,,2,900,-21.9982505,-47.8788621,418,0,40,114.94
L,Comercial,Jardim São Carlos,AV. COMENDADOR ALFREDO MAFFEI,Galpão,959,,300,,1,,,3334,-22.01709,-47.89791,68,0,150,110
SL,Casas,Jardim São João Batista,Rua Durvalino Gonçalves da Silva,Padrão,25,130,250,2,2,2,3,1889,-21.99954,-47.87646,443,0,,80
L,Apartamentos,Romeu Santini,Rua Doutor Eufrauzino Moreira,Padrão,35,,50,2,1,1,2,778,-22.02403,-47.91534,210,0,50,21
L,Casas,CENTRO,RUA AQUIDABAN,Padrão,450,296.5,311.5,4,3,2,5,2778,-22.02045,-47.89458,234,0,,320
L,Casas,Vila Costa do Sol,Rua Professor Mozart de Santos Mello,Padrão,309,60,80,2,1,1,2,1667,-21.99977,-47.88246,564,0,,25
L,Comercial,Jardim São Carlos,Rua Geminiano Costa,Sala,241,,176,,2,,,2224,-22.02067,-47.89507,91,0,176,
L,Casas,Vila Boa Vista 1,Rua Natalino Mastro Francisco,Padrão,1569,80,125,2,1,2,2,1112,-22.03701,-47.90223,708,0,,50
L,Comercial,Jardim São Carlos,Rua Geminiano Costa,Sala,243,,88,,1,,,1112,-22.02066,-47.89502,93,0,88,
SL,Casas,Jardim Paulistano,Rua Paulo Elias,Padrão,203,130,250,3,1,2,3,2445,-21.99509,-47.89963,477,0,,137.98
L,Comercial,SANTA FELICIA,AV. BRUNO RUGGIERO FILHO,Sala,1263,,36,,1,,,700,-22.00123,-47.91924,141,0,36,32
L,Comercial,SANTA FELICIA,AV. BRUNO RUGGIERO FILHO,Sala,1263,,35,,1,0,,900,-22.00123,-47.91924,77,0,35,39
L,Casas,Jardim Santa Paula,Rua Rosalino Bellini,Padrão,417,210,300,3,2,2,4,3334,-21.99843,-47.90243,161,0,,158
SL,Apartamentos,Vila Prado,Rua Doutor Duarte Nunes,Padrão,330,,63,2,2,1,3,1667,-22.0246805,-47.9022868,320,0,63,
L,Apartamentos,Vila Prado,Rua Doutor Duarte Nunes,Padrão,330,,56.48,2,2,1,3,1283,-22.0246805,-47.9022868,178,0,56.48,25
L,Apartamentos,Vila Prado,Rua Doutor Duarte Nunes,Padrão,330,,56.48,2,2,1,3,1283,-22.0246805,-47.9022868,82,0,56.48,25
L,Apartamentos,Vila Prado,Rua Doutor Duarte Nunes,Padrão,330,,56.48,2,2,1,3,1283,-22.0246805,-47.9022868,83,0,56.48,25
L,Apartamentos,Vila Prado,Rua Doutor Duarte Nunes,Padrão,330,,72.23,3,2,2,4,1747,-22.0246805,-47.9022868,223,0,72.23,25
L,Apartamentos,Vila Prado,Rua Doutor Duarte Nunes,Padrão,330,,63.84,2,2,1,3,1445,-22.0246805,-47.9022868,78,0,63.84,25
L,Apartamentos,Vila Prado,Rua Doutor Duarte Nunes,Padrão,330,,61.56,2,2,1,3,1395,-22.0246805,-47.9022868,57,0,,25
L,Apartamentos,Vila Prado,Rua Doutor Duarte Nunes,Padrão,330,,63.84,2,2,1,3,1445,-22.0246805,-47.9022868,45,0,63.84,25
L,Apartamentos,Vila Prado,Rua Doutor Duarte Nunes,Padrão,330,,61.56,2,2,1,3,1395,-22.0246805,-47.9022868,61,0,61.56,25
L,Apartamentos,Vila Prado,Rua Doutor Duarte Nunes,Padrão,330,,61.56,2,2,1,3,1395,-22.0246805,-47.9022868,39,0,61.56,25
L,Apartamentos,Vila Prado,Rua Doutor Duarte Nunes,Padrão,330,,61.56,2,2,1,3,1395,-22.0246805,-47.9022868,42,0,61.56,25
L,Apartamentos,Vila Prado,Rua Doutor Duarte Nunes,Padrão,330,,61.56,2,2,1,3,1395,-22.0246805,-47.9022868,55,0,61.56,25
L,Apartamentos,Vila Prado,Rua Doutor Duarte Nunes,Padrão,330,,61.56,2,2,1,3,1395,-22.0246805,-47.9022868,47,0,61.56,25
L,Comercial,Vila Morumbi,Avenida Morumbi,Galpão,840,,504,,3,4,,7223,-22.04265,-47.88608,162,0,504,114
L,Comercial,Núcleo Residencial Silvio Vilari,Rua Vivaldo Lanzoni,Sala,160,,35,,2,,,889,-22.0271,-47.89237,97,0,21.19,
L,Comercial,Núcleo Residencial Silvio Vilari,Rua Vivaldo Lanzoni,Sala,160,,35,,2,,,889,-22.0271,-47.89237,48,0,18.6,
L,Comercial,Núcleo Residencial Silvio Vilari,Rua Vivaldo Lanzoni,Sala,160,,25,,2,,,778,-22.0271,-47.89237,76,0,11.9,
L,Comercial,Núcleo Residencial Silvio Vilari,Rua Vivaldo Lanzoni,Sala,160,,70,,2,,,2556,-22.0271,-47.89237,92,0,70,
L,Comercial,Cidade Aracy,Rua Francisco Alberto Micelli,Loja,202,,30,0,1,,0,834,-22.05942,-47.89616,91,0,30,0
SL,Apartamentos,Parque Faber Castell,Passeio das Palmeiras,Duplex,55,,133.47,4,4,2,8,4445,-22.01629,-47.91655,298,0,133.47,819
L,Comercial,Vila Brasília,Rua Costa Rica,Salão,275,,90,,1,,,2223,-21.9944694,-47.8808458,70,0,90,120
SL,Apartamentos,Centro,RUA VINTE E OITO DE SETEMBRO,Padrão,2293,,169,3,2,2,4,3167,-22.01035,-47.88839,519,1,129,314.23
SL,Comercial,Vila Carmem,RUA DOUTOR JOÃO DE OLIVEIRA,Barracão,993,,320,,2,,,3500,-22.02804,-47.90807,196,0,320,
SL,Casas,Residencial Eldorado,Rua Miguel Petroni,Condomínio,4900,312,280,3,2,2,4,4778,-21.98957,-47.92169,355,0,,250
L,Apartamentos,Recreio São Judas Tadeu,AV. GREGÓRIO AVERSA,Padrão,325,,48.36,2,1,1,2,723,-22.03305,-47.86829,133,0,48.36,18
L,Comercial,BOA VISTA,Avenida Theodureto de Camargo,Loja,311,,40,,1,0,,1178,-22.03561,-47.90115,139,0,40,0
L,Comercial,SANTA FELICIA,Rua Alberto Lanzoni,Loja,465,,20,0,1,0,0,812,-22.00169,-47.91316,200,0,20,17
L,Comercial,Jardim Lutfalla,Rua Cézar Ricomi,Salão,729,,250,,2,2,,8334,-22.00494,-47.88876,119,0,217,130
L,Casas,Jardim Ipanema,AV. OTTO WERNER ROSEL,Condomínio,1455,,80,2,1,1,2,1000,-21.98484,-47.93834,1054,0,,50
L,Comercial,Centro,Avenida São Carlos,Salão,1390,,1200,,4,,,55000,-22.02108,-47.8905,113,0,1200,
L,Comercial,Vila Prado,AV. SALLUM,Sala,1607,,200,,3,,,2800,-22.0346566,-47.8950356,78,0,200,200
L,Apartamentos,Distrito Industrial Miguel Abdelnur,Av. DR. HEITOR JOSE REALI,Padrão,1426,,45,2,1,1,2,800,-22.04047,-47.87738,420,0,45,42.46
L,Apartamentos,Parque Faber Castell,Passeio das Palmeiras,Padrão,420,,79,2,2,2,3,3556,,,263,0,79,150
SL,Apartamentos,Parque Fehr,Servidão de Passagem João Deriggi,Padrão,181,,48,2,1,1,2,778,-21.97879214,-47.93982983,576,0,48,48
L,Apartamentos,Parque Arnold Schimidt,Rua Alvarenga Peixoto,Padrão,290,,50,2,1,1,2,1334,,,736,0,50,75
L,Comercial,Vila Brasília,AV. ARARAQUARA,Salão,863,,350,,2,3,,3889,-21.99801,-47.87861,129,0,350,300
L,Comercial,Vila Brasília,AV. ARARAQUARA,Sala,853,,38,0,1,1,0,800,-21.99796,-47.87856,127,0,38,50
L,Comercial,Jardim Cruzeiro do Sul,Rua Basílio Dibbo,Sala,698,,20,,1,,,556,-22.04154,-47.88844,95,0,20,
SL,Casas,Parque Faber Castell,OUT DAS GOIABEIRAS,Condomínio,74,237.05,400,3,6,4,6,6000,,,312,0,,293
L,Casas,Parque Tecnológico Damha,RUA MIGUEL DAMHA,Condomínio,1601,198,365,3,4,,6,6000,-21.96484,-47.89669,464,0,,204.95
L,Comercial,Centreville,Rua Antônio Rodrigues Cajado,Salão,852,,40,,2,,,2778,-22.0203,-47.88389,66,0,40,100
L,Casas,Cidade Jardim,Alameda das Azaleias,Kitnet,150,30,30,1,1,0,1,723,-22.00204,-47.89285,143,0,,0
L,Comercial,Centro,Rua Geminiano Costa,Salão,1414,,50,,1,,,2778,-22.02056,-47.88363,70,0,50,100
L,Comercial,Jardim São Carlos,RUA JESUÍNO DE ARRUDA,Salão,1803,,30,,1,,,1445,-22.01966,-47.89334,126,0,30,
L,Comercial,Jardim São Carlos,RUA JESUÍNO DE ARRUDA,Sala,1809,,50,,1,,,1889,-22.01957,-47.89336,73,0,50,
L,Comercial,CENTRO,Rua Rui Barbosa,Salão,1057,,400,,4,,,7778,-22.0172804,-47.8868966,143,0,400,
L,Casas,Núcleo Residencial Silvio Vilari,RUA FRANCISCO MARMORATO,Padrão,165,100,200,3,1,1,3,1112,-22.02961,-47.89196,381,0,,
L,Apartamentos,Romeu Santini,Rua Joaquim Ninelli,Padrão,18,,50,2,1,1,2,834,-22.02484,-47.91469,381,0,50,21.81
L,Comercial,Jardim Novo Horizonte,RUA ALEXANDRE PEDRAZZANI,Barracão,110,,210,,2,,,3000,-22.03698,-47.85559,115,0,150,
L,Comercial,Vila Marcelino,RUA HUGO DORNFELD,Barracão,368,,748,,1,,,6112,-22.02794,-47.88698,28,0,420.65,490
L,Casas,Jardim Brasil,Rua Jesuíno de Arruda,Comercial,2306,100,100,,3,,,3201,-22.01953,-47.87941,93,0,,79
SL,Apartamentos,Núcleo Residencial Silvio Vilari,RUA EPISCOPAL,Padrão,1725,,70,1,2,1,1,945,-22.02739,-47.8915,233,0,70,100
L,Casas,Vila Brasília,Rua Paraguai,Sobrado,665,76.04,115,2,1,2,2,1334,-21.99765,-47.87648,1048,0,,26.63
L,Comercial,Jardim Paulistano,Rua Iwagiro Toyama,Sala,425,,40,,1,1,,789,-21.99433,-47.89756,225,0,400,75
L,Comercial,CENTRO,Rua Quinze de Novembro,Sala,2072,,210,,1,,,10501,-22.01241,-47.89027,88,0,210,
L,Comercial,Jardim Cruzeiro do Sul,Rua Francisco Marigo,Sobrado,395,,308,1,2,2,1,1667,-22.03945,-47.89088,48,0,163,79
L,Comercial,Vila Costa do Sol,RUA ANTÔNIO BLANCO,Barracão,449,,65,,2,0,,3100,-22.00229,-47.88683,81,0,65,0
SL,Apartamentos,Jardim Gibertoni,RUA PORCENO MARINO,Studio,122,,42.5,1,1,1,1,800,,,272,0,42.5,40
L,Comercial,Jardim São Carlos,RUA JESUÍNO DE ARRUDA,Sala,2305,,50,,1,,,3335,-22.01955,-47.88845,73,0,50,95.56
L,Comercial,Jardim Santa Tereza,Rua Coronel Leopoldo Prado,Sala,750,,20,,1,,,890,-22.0412379,-47.9062382,139,0,20,35
L,Comercial,Jardim Cruzeiro do Sul,Rua Allan Kardec,Salão,875,,130,,2,,,3000,-22.0417026,-47.8887987,71,0,130,30
L,Apartamentos,Centreville,Rua José Rodrigues Sampaio,Padrão,777,,109,3,2,2,3,3901,-22.02495338,-47.88201212,489,0,109,410
L,Comercial,Jardim São Carlos,AV. COMENDADOR ALFREDO MAFFEI,Sala,1605,,50,,1,,,1000,-22.01709,-47.89791,68,0,50,150
L,Comercial,Jardim São Carlos,AV. COMENDADOR ALFREDO MAFFEI,Sala,1605,,30,,1,,,890,-22.01709,-47.89791,71,0,30,100
L,Comercial,Jardim São Carlos,AV. COMENDADOR ALFREDO MAFFEI,Sala,1605,,60,,2,,,1001,-22.01709,-47.89791,83,0,60,150
L,Comercial,Jardim São Carlos,AV. COMENDADOR ALFREDO MAFFEI,Salão,1605,,50,,2,,,2668,-22.01709,-47.89791,102,0,50,200
SL,Casas,Cidade Jardim,Alameda das Azaleias,Padrão,397,302.62,720,4,3,2,4,4446,-22.00189,-47.89261,526,0,,419.8
L,Apartamentos,Vila Prado,Avenida José Pereira Lopes,Padrão,333,,50,2,1,1,2,2668,-22.0222689,-47.9026411,248,0,50,
L,Comercial,Jardim São Carlos,RUA GENERAL OSÓRIO,Sala,457,,240,,2,,,2778,-22.02157,-47.89495,42,0,180,112
L,Comercial,Jardim São Paulo,RUA ERNESTO GONÇALVES ROSA JÚNIOR,Galpão,83,,4100,,10,,,44446,-22.03761389,-47.87773111,226,0,2750,2500
L,Casas,Vila Marcelino,RUA RAIMUNDO CORREA,Condomínio,1018,70,120,3,2,2,4,1389,-22.02946,-47.88114,952,0,,47
L,Comercial,Jardim São Carlos,RUA JESUÍNO DE ARRUDA,Sala,2305,,70,,2,,,2223,-22.01955,-47.88845,97,0,70,95.56
L,Comercial,Vila Izabel,RUA SANTA GERTRUDES,Barracão,477,,1050,,1,,,15556,-22.0340839,-47.8862822,85,0,700,
L,Comercial,Vila Izabel,RUA SANTA GERTRUDES,Barracão,477,,1050,,22,,,15557,-22.0340839,-47.8862822,66,0,700,
SL,Apartamentos,Jardim Tangará,Rua Victório Bonucci,Padrão,555,,62,2,1,1,2,1000,,,397,0,50,31.82
L,Comercial,Jardim Jóckei Club A,Rua Rio Amazonas,Galpão,479,,9580,,5,,,100000,-21.98167,-47.90141,91,0,9580,12632.09
L,Apartamentos,CENTRO,Rua Treze de Maio,Padrão,1119,,56,2,1,1,2,2445,-22.01881,-47.89918,512,0,56,0
L,Comercial,CENTRO,RUA MAJOR JOSÉ INÁCIO,Sala,2481,,16.32,,1,,,950,-22.01675,-47.88625,192,0,16.32,
L,Comercial,CENTRO,RUA MAJOR JOSÉ INÁCIO,Sala,2481,,21.45,,1,,,1150,-22.01675,-47.88625,129,0,21.45,
L,Comercial,Vila Monteiro (Gleba I),RUA DONA ALEXANDRINA,Sala,2140,,324,,2,4,,2779,-22.00675,-47.88986,173,0,324,195
L,Casas,Vila Brasília,Rua Narciso Lazarini,Padrão,50,30,60,1,1,,1,889,-21.99833,-47.88326,422,0,,16
SL,Apartamentos,Parque Faber Castell,Passeio das Palmeiras,Padrão,420,,106,2,2,2,3,3889,,,396,0,106,
SL,Casas,Romeu Santini,RUA PROFESSORA CACILDA MARCONDES COSTA,Padrão,35,153,200,3,2,2,4,2300,-22.02858,-47.91551,113,0,,100
L,Apartamentos,Jardim Ipanema,Rua Laura Villani Piovesan,Padrão,65,,57.14,2,1,1,2,1113,-21.98694,-47.92543,490,0,57.14,41.6
L,Comercial,CENTRO,RUA MARECHAL DEODORO,Loja,1883,,1056,,4,4,,17000,-22.01499,-47.89219,190,0,1000,
SL,Apartamentos,Jardim Embaré,Rua Ray Wesley Herrick,Padrão,5441,,48,2,1,1,2,834,-21.97513,-47.93328,176,0,48,60
L,Apartamentos,Parque Faber Castell,Passeio das Palmeiras,Padrão,501,,110,4,3,2,6,2778,-22.01629,-47.91655,438,0,110,
L,Casas,Centro,Rua Rafael de Abreu Sampaio Vidal,Padrão,1100,200,250,3,3,1,4,5000,-22.01853,-47.88276,245,0,,324.94
L,Comercial,Centro,Rua São Paulo,Sala,1185,,,,1,,,1000,-22.01643,-47.88589,297,0,12,
L,Apartamentos,Parque Faber Castell,Passeio das Palmeiras,Padrão,420,,,2,2,1,3,3600,,,286,0,79,236.36
L,Comercial,SANTA FELICIA,Rua Affonso Botelho de Abreu Sampaio,Salão,1011,,45,,1,,,835,-21.99829,-47.91409,297,0,45,0
SL,Rural,VALPARAISO,Rua Dois,Chácara,66,,,1,1,,1,2223,,,493,0,,209.1
L,Comercial,CENTRO,RUA MAJOR JOSÉ INÁCIO,Sala,3075,,20,,2,,,2778,-22.01662,-47.88047,83,0,20,164
L,Comercial,Jardim Cruzeiro do Sul,Rua Allan Kardec,Barracão,1530,,175,,2,,,2778,-22.04754,-47.88593,148,0,175,
L,Comercial,Jardim Paraíso,RUA DONA MARIA JACINTA,Barracão,340,,200,,2,,,4445,-22.00866,-47.90151,112,0,100,225.41
L,Comercial,Jardim São Carlos,Rua Treze de Maio,Sala,1741,,20,,1,,,623,-22.01871,-47.89306,123,0,20,
SL,Apartamentos,Jardim Alvorada,Rua Flauzino Marques,Padrão,10,,58,2,2,1,3,1556,-22.01039,-47.90892,264,0,58,67
L,Casas,Jardim Tangará,Avenida Dom Carmine Rocco,Padrão,372,90,90,3,1,2,3,1613,-22.01241,-47.85609,354,0,,40.27
L,Casas,Jardim Tangará,Avenida Dom Carmine Rocco,Padrão,366,90,90,3,1,2,3,1612,-22.01246,-47.8561,230,0,,40.27
SL,Casas,Parque Santa Mônica,Rua Professor Ernfrid Frick,Padrão,584,217,525,3,2,4,4,2778,-22.01189,-47.90328,489,0,,363
SL,Comercial,Residencial Arcoville,Rua Benedito Mayer,Barracão,422,,240,,2,4,,3334,-21.96524,-47.94376,264,0,180,70
SL,Apartamentos,Parque Faber Castell,Passeio das Palmeiras,Padrão,701,,79,2,4,2,3,2778,-22.01652,-47.91733,355,0,79,112
L,Casas,Jardim São João Batista,Rua Durvalino Gonçalves da Silva,Padrão,330,90,100,2,1,2,2,1835,-22.00448,-47.87795,301,0,,80
SL,Casas,VILA NERY,RUA GIUSEPPE DOS SANTOS,Padrão,135,89,250,2,1,1,2,889,-22.00877,-47.87219,986,1,,48
L,Casas,CENTRO,RUA MARECHAL DEODORO,Sobrado,2149,180,250,3,2,2,4,3334,-22.0146951,-47.8726405,593,0,,190
SL,Casas,Cidade Jardim,Al DOS HELIOTROPOS,Sobrado,176,384.1,589.93,3,2,10,4,4223,-21.99813,-47.89494,272,0,,495
L,Apartamentos,Jardim Lutfalla,RUA SALOMÃO DIBBO,Padrão,321,,40,1,1,1,1,2001,-22.00443,-47.89592,337,0,40,0
L,Comercial,Jardim Paraíso,RUA CONSELHEIRO JOÃO ALFREDO,Prédio,260,,973,,6,6,,15000,-22.0077,-47.90153,117,0,560,585
L,Apartamentos,Jardim Lutfalla,RUA SALOMÃO DIBBO,Studio,321,,40,1,1,1,1,2000,-22.00443,-47.89592,288,0,40,68
SL,Casas,Vila Marina,Rua Luiz Vaz de Camões,Padrão,20,80,200,2,2,6,3,1334,,,638,0,,90
L,Casas,Parque Santa Mônica,Rua São Sebastião,Padrão,1264,150,250,4,2,,6,4501,-22.01344,-47.89806,230,0,,
L,Comercial,Recreio São Judas Tadeu,AV. GETÚLIO VARGAS,Barracão,290,,300,,2,4,,2800,-22.03495,-47.86897,244,0,300,350
L,Comercial,Vila Carmem,Rua Cesar Dacorso Filho,Salão,1842,,234,,2,0,,2667,-22.0274,-47.90779,111,0,190,110
L,Apartamentos,CENTRO,Rua Conde do Pinhal,Kitnet,1227,,30,1,1,,1,700,-22.01751,-47.8981,743,0,30,45
L,Apartamentos,CENTRO,Rua Conde do Pinhal,Kitnet,1227,,30,1,1,,1,630,-22.01751,-47.8981,473,0,30,45
L,Casas,Jardim Santa Paula,Rua Célio Barbosa da Silva,Padrão,110,280,280,4,4,3,6,3705,-22.00077,-47.90412,291,0,,
L,Casas,Jardim Martinelli,AV. PACAEMBU,Padrão,350,175,285,3,2,4,4,1668,-22.03958,-47.89993,1036,0,,115
L,Apartamentos,Jardim Paraíso,RUA PROF. NICOLETA STELLA GERMANO,Kitnet,54,,30,1,1,,1,778,-22.0053,-47.90087,1027,0,30,38
L,Casas,Vila Costa do Sol,RUA DONA ALEXANDRINA,Kitnet,2488,50,50,1,1,1,1,667,-22.00337,-47.88998,1346,0,,50
SL,Apartamentos,Jardim Gibertoni,Rua Humberto Manelli,Cobertura,150,,104,3,2,2,4,2213,,,718,0,104,77
SL,Casas,Jardim São Carlos 5,Rua Odair Campos Pereira,Padrão,165,180,280,4,1,3,4,1778,-21.9896,-47.92945,242,0,,75
L,Apartamentos,Parque Faber Castell,Passeio das Magnólias,Padrão,345,,76,2,2,2,3,3000,-22.01308,-47.91926,334,0,76,
L,Comercial,Centro,RUA MAJOR JOSÉ INÁCIO,Sala,3075,,20,,2,,,2779,,,119,0,20,
SL,Comercial,Vila Carmem,Rua Cesar Dacorso Filho,Barracão,584,,250,,2,,,3334,-22.02938,-47.90646,251,0,250,100
SL,Comercial,Vila Carmem,Rua Cesar Dacorso Filho,Barracão,594,,250,,2,,,3334,-22.02945,-47.90641,185,0,250,100
L,Comercial,Vila Monteiro (Gleba I),Rua Silvério Ignarra Sobrinho,Sala,181,,15,,1,,,723,-22.0261888,-47.8879211,292,0,15,43
L,Apartamentos,Vila Monteiro (Gleba I),Rua Silvério Ignarra Sobrinho,Kitnet,181,,32,1,1,,1,600,-22.0261888,-47.8879211,227,0,32,43
L,Comercial,Vila Marcelino,RUA AMADEU AMARAL,Barracão,386,,380,,2,,,7778,-22.03043,-47.88757,210,0,380,81.81
L,Comercial,Vila Marcelino,RUA AMADEU AMARAL,Barracão,260,,360,,2,,,4445,-22.0293,-47.88756,86,0,360,330
L,Casas,Vila Brasília,Rua Chile,Kitnet,419,30,30,1,1,,1,695,-21.99631,-47.88266,257,0,,25
L,Apartamentos,Vila Celina,Rua Anita Stella,Padrão,461,,40,1,1,,1,1340,-21.99422,-47.88708,214,0,40,47
SL,Casas,CENTRO,RUA EPISCOPAL,Padrão,1820,127.3,239.33,3,2,4,4,2779,-22.01445,-47.89166,659,0,,205.87
L,Comercial,Vila Prado,Rua Ananias Evangelista de Toledo,Salão,860,,150,,3,0,,2800,-22.03019,-47.9037,178,0,150,75
SL,Apartamentos,Jardim das Torres,RUA DOUTOR ANTÔNIO STELLA MORUZZI,Padrão,300,,60,2,1,1,2,667,-22.0335399,-47.911186,289,0,50,44
L,Comercial,Vila Jacobucci,RUA JÚLIO PRESTES DE ALBUQUERQUE,Salão,403,,50,,2,,,889,-22.00627,-47.87163,148,0,40,75
L,Comercial,Salto do Monjolinho,Estrada Municipal Cônego Washington José Pera,Sala,2381,,50,,1,1,,801,,,65,0,50,
L,Comercial,Salto do Monjolinho,Estrada Municipal Cônego Washington José Pera,Sala,2381,,50,,1,1,,800,,,59,0,50,
L,Comercial,Salto do Monjolinho,Estrada Municipal Cônego Washington José Pera,Barracão,2381,,250,,2,1,,2500,,,111,0,250,
L,Apartamentos,Vila Izabel,Rua Coronel José Augusto de Oliveira Salles,Padrão,874,,40,2,1,1,2,557,-22.03716,-47.88445,766,0,40,20
L,Apartamentos,Jardim São Carlos,Rua Jesuíno de Arruda,Padrão,1306,,50,2,1,,2,1223,,,278,0,50,75
L,Apartamentos,Jardim Nova Santa Paula,Rua Américo Jacomino Canhoto,Padrão,223,,50,2,1,1,2,890,-21.99536,-47.90053,1835,0,50,40
SL,Comercial,Parque Faber Castell,Passeio das Castanheiras,Sala,431,,113,,1,1,,1500,-22.02021,-47.91634,369,0,43.68,95
SL,Casas,CENTRO,RUA BENTO CARLOS,Padrão,1611,139,240,2,2,4,3,1335,-22.02215,-47.87907,287,0,,75
L,Comercial,Jardim Santa Tereza,Rua Coronel Leopoldo Prado,Sala,750,,20,,1,,,889,-22.0412379,-47.9062382,150,0,20,35
L,Comercial,Distrito Industrial Miguel Abdelnur,Av. DR. HEITOR JOSE REALI,Barracão,113,,9410,,8,20,,100001,,,119,0,4302.5,
L,Apartamentos,Jardim Lutfalla,RUA SALOMÃO DIBBO,Padrão,321,,40,1,1,1,1,2000,-22.00443,-47.89592,402,0,40,68
L,Apartamentos,Jardim Lutfalla,RUA SALOMÃO DIBBO,Padrão,321,,40,1,1,1,1,2000,-22.00443,-47.89592,313,0,40,68
SL,Casas,Residencial Samambaia,Av. AVENIDA PEDRO MUSZKAT,Condomínio,911,143,250,3,2,2,4,4445,-21.96297,-47.88913,575,0,,100
L,Comercial,Vila Prado,RUA SÃO PIO X,Sala,595,,25,,1,0,,751,-22.03018,-47.8992,382,0,25,35
L,Casas,Jardim Cruzeiro do Sul,Rua Nações Unidas,Padrão,65,150,250,3,2,2,3,2000,-22.04062,-47.89267,669,0,,80
L,Apartamentos,Núcleo Residencial Silvio Vilari,Rua Episcopal,Padrão,1675,,70,2,2,1,2,1500,,,320,0,70,
L,Apartamentos,Parque Fehr,Servidão de Passagem João Deriggi,Padrão,181,,45,2,1,1,2,723,-21.97879214,-47.93982983,591,0,45,42.37
SL,Casas,Residencial Samambaia,RUA NICOLLA FIORENTINO,Condomínio,170,200,500,3,2,2,4,2801,-21.95661,-47.88341,1219,0,,
L,Comercial,Jardim São Carlos,AV. COMENDADOR ALFREDO MAFFEI,Loja,2542,,12,,,,,1001,-22.01709,-47.89791,89,0,12,
SL,Casas,Vila Prado,RUA DOUTOR BERNARDINO DE CAMPOS,Padrão,960,250,326.62,3,3,4,4,3890,-22.02983,-47.89755,216,0,,86
L,Apartamentos,Parque Faber Castell,Passeio das Magnólias,Padrão,281,,65.72,2,2,1,3,2224,-22.0137813,-47.9182148,697,0,65.72,
SL,Apartamentos,Parque Faber Castell,Passeio das Magnólias,Padrão,281,,45.64,1,1,1,1,1850,-22.0137813,-47.9182148,362,0,45.64,
SL,Apartamentos,Parque Faber Castell,Passeio das Magnólias,Padrão,281,,65.72,2,2,1,3,2500,-22.0137813,-47.9182148,160,0,65.72,
SL,Apartamentos,Parque Faber Castell,Passeio das Magnólias,Padrão,281,,65.72,2,2,1,3,2500,-22.0137813,-47.9182148,141,0,65.72,
SL,Apartamentos,Parque Faber Castell,Passeio das Magnólias,Padrão,281,,65.72,2,2,1,3,2500,-22.0137813,-47.9182148,149,0,65.72,
L,Comercial,Parque Santa Mônica,Avenida Tancredo de Almeida Neves,Barracão,62,,900,,3,,,20000,-22.02334,-47.90963,64,0,300,0
SL,Apartamentos,Parque Faber Castell,Passeio das Magnólias,Padrão,281,,65.72,2,1,1,2,2500,-22.0137813,-47.9182148,239,0,65.72,
L,Comercial,CENTRO,RUA MARECHAL DEODORO,Sala,2490,,1500,2,5,6,2,8000,-22.01511,-47.88632,179,0,1500,0
L,Casas,Centro,RUA MARECHAL DEODORO,Comercial,1278,500,560,3,3,7,4,5000,-22.0152949,-47.8952842,245,0,,350
L,Apartamentos,Parque Faber Castell,Passeio das Palmeiras,Padrão,420,,79.9,3,2,2,4,3889,,,491,0,79.9,
L,Casas,Jardim Centenário,RUA DOMINGOS JORGE VELHO,Padrão,150,157,330,3,2,2,4,3000,-21.99888,-47.90711,245,0,,82
L,Comercial,Jardim São Carlos,RUA JESUÍNO DE ARRUDA,Ponto Comercial,2039,,150,,3,0,,3334,-22.01959,-47.89106,227,0,150,0
SL,Comercial,Vila Faria,Rua da Imprensa,Barracão,26,,350,1,3,2,1,1700,-22.01476,-47.87663,281,0,350,110
L,Comercial,CENTRO,Rua Geminiano Costa,Salão,559,,220,,2,,,10000,-22.02058,-47.89199,96,0,220,0
L,Comercial,CENTRO,Rua Geminiano Costa,Sala,553,,200,,3,,,2224,-22.0206,-47.89208,194,0,200,0
L,Comercial,Núcleo Residencial Silvio Vilari,RUA EPISCOPAL,Sala,1456,,45,,1,0,,889,-22.02739,-47.8915,241,0,45,221
L,Comercial,SANTA FELICIA,Rua Joaquim Augusto Ribeiro de Souza,Loja,1342,,45,,1,,,900,-21.99954,-47.9187,150,0,45,0
L,Apartamentos,Vila Rancho Velho,Rua Theodolina Modena Coca,Padrão,85,,55,2,1,1,2,778,-22.01084,-47.86918,697,0,55,32
L,Comercial,Jardim Bandeirantes,Rua Miguel Petroni,Sala,1515,,36,,1,,,1334,-22.00159,-47.905,30,1,36,35
SL,Casas,Jardim São Carlos,Rua Conde do Pinhal,Comercial,2446,360.8,230.91,,2,1,,2223,-22.01787,-47.8863,215,0,,190
SL,Casas,Jardim São Carlos,Rua Conde do Pinhal,Comercial,2442,221.92,365.82,,2,1,,1667,-22.01787,-47.88639,209,0,,183
L,Comercial,Jardim São Carlos,RUA GENERAL OSÓRIO,Loja,235,,120.56,1,3,,1,1400,-22.0215851,-47.8968256,118,0,120.56,57.48
L,Comercial,CEAT,AV. HÉLIO FRIGORI,Barracão,690,,3060,,2,5,,24700,-22.07077,-47.88247,158,0,1490,
SL,Comercial,Jardim São Carlos,RUA GENERAL OSÓRIO,Loja,671,,270,,3,,,6113,-22.02151,-47.89287,184,0,270,310
L,Apartamentos,Residencial Monsenhor Romeu Tortorelli,Avenida João Stella,Padrão,300,,45,2,1,1,2,723,-22.0048495,-47.9234576,978,0,45,45
L,Apartamentos,Jardim Gibertoni,Rua Humberto Manelli,Padrão,116,,40,1,1,1,1,1250,,,377,0,40,41.21
L,Comercial,Centreville,Rua Santa Cruz,Salão,595,,80,,1,,,2667,-22.02332,-47.88885,158,0,80,130
L,Comercial,Centreville,Rua Santa Cruz,Sala,595,,60,,1,,,1334,-22.02332,-47.88885,112,0,60,130
L,Comercial,Centreville,Rua Santa Cruz,Sala,595,,60,,1,,,1334,-22.02332,-47.88885,69,0,60,130
L,Comercial,CENTRO,RUA MAJOR JOSÉ INÁCIO,Galpão,3418,,500,,2,,,2100,-22.01681,-47.87737,253,0,390,
SL,Casas,Vila Faria,Rua Sete de Setembro,Padrão,3752,245,300,3,3,4,4,2500,-22.01585,-47.87395,457,0,,162
L,Comercial,Vila Prado,Avenida Grécia,Prédio,642,,250,,4,3,,7223,-22.03492,-47.9006,167,0,250,220
L,Comercial,Jardim São Carlos,AV. COMENDADOR ALFREDO MAFFEI,Galpão,1540,,1270,,2,,,17778,-22.0171703,-47.8984837,164,0,1270,
L,Comercial,Jardim São Carlos,AV. COMENDADOR ALFREDO MAFFEI,Galpão,1520,,1270,,2,,,17778,-22.01718,-47.89773,134,0,1270,
L,Apartamentos,Recreio São Judas Tadeu,Avenida Gregório Aversa,Padrão,371,,55,2,1,1,2,1000,-22.03366,-47.8659,542,0,55,25
L,Apartamentos,Parque Faber Castell,Passeio das Palmeiras,Padrão,701,,80,2,2,1,3,2778,-22.01652,-47.91733,374,0,80,270
L,Comercial,Centro,Avenida São Carlos,Loja,2754,,210,,2,2,,3900,-22.00889,-47.89075,260,0,210,200
SL,Casas,Centro,RUA MAJOR JOSÉ INÁCIO,Padrão,3352,150,250,3,4,2,6,5000,-22.01681,-47.87758,349,0,,260
L,Comercial,CENTRO,RUA AQUIDABAN,Ponto,1243,,532,4,5,2,8,12000,-22.01308,-47.89499,200,0,506,
L,Apartamentos,Núcleo Residencial Silvio Vilari,Rua José Bonifácio,Padrão,1860,,175,3,3,1,4,1800,-22.02756,-47.89339,503,0,175,300
SL,Casas,Vila Prado,AV. SALLUM,Comercial,887,350,430,2,2,,2,2334,-22.02913,-47.89881,105,0,,155
SL,Casas,VILA MONTEIRO,RUA DONA ALEXANDRINA,Comercial,218,145,257.98,3,1,5,4,2778,-22.02453,-47.88942,309,0,,105
SL,Casas,Vila Prado,RUA SÃO PIO X,Padrão,363,160,200,2,2,1,2,1445,-22.02905,-47.8973,1030,0,,40
L,Terreno,JARDIM GUANABARA,Rodovia Washington Luiz,Lote,0,0,748,,,,,2889,-21.98601,-47.8874,150,0,,269
L,Comercial,Vila Monteiro (Gleba I),Rua São Paulo,Sala,571,,20,,1,,,1000,-22.02189,-47.88576,265,0,20,
L,Comercial,Jardim São João Batista,Rua Antônio Blanco,Salão,185,,50,,1,,,1667,-22.0033,-47.87769,127,0,50,
SL,Apartamentos,Parque Fehr,Servidão de Passagem João Deriggi,Padrão,181,,45,2,1,1,2,1001,-21.97879214,-47.93982983,474,0,45,
SL,Casas,Loteamento São Carlos Club,RUA VINTE E OITO DE SETEMBRO,Comercial,2699,382,540,4,5,4,8,5000,-22.0102,-47.88428,527,0,,150
L,Apartamentos,CENTRO,Rua Quinze de Novembro,Padrão,2378,,145,3,2,2,4,3001,-22.0124,-47.88713,579,0,145,135
L,Apartamentos,Parque Arnold Schimidt,RUA MIGUEL ALVES MARGARIDO,Padrão,280,,35,1,1,1,1,2000,-22.0031159,-47.8949527,936,0,35,85
L,Comercial,CENTRO,RUA MARECHAL DEODORO,Sala,3751,,255.75,,3,2,,3601,-22.01472,-47.87357,227,0,330.66,197.61
L,Apartamentos,Jardim Paraíso,RUA PROF. NICOLETA STELLA GERMANO,Kitnet,54,,30,1,1,,1,778,-22.0053,-47.90087,319,0,30,38
L,Apartamentos,Jardim Paraíso,RUA PROF. NICOLETA STELLA GERMANO,Kitnet,54,,30,1,1,,1,778,-22.0053,-47.90087,126,0,30,38
L,Apartamentos,Jardim Paraíso,RUA PROF. NICOLETA STELLA GERMANO,Kitnet,54,,30,1,1,,1,889,-22.0053,-47.90087,112,0,30,38
L,Casas,Jardim Nova São Carlos,Rua Francisco Monaretti,Padrão,51,130,150,3,2,3,4,2200,-22.03192,-47.87537,378,0,,82
L,Comercial,CENTRO,Rua José Bonifácio,Sala,869,,12,,1,,,778,-22.02117,-47.89374,182,0,12,
L,Comercial,CENTRO,Rua José Bonifácio,Sala,869,,20,,1,,,823,-22.02117,-47.89374,108,0,20,
L,Comercial,CENTRO,Rua José Bonifácio,Sala,869,,20,,1,,,889,-22.02117,-47.89374,64,0,20,
L,Comercial,Jardim Brasil,Rua Jesuíno de Arruda,Sala,2610,,24,,1,,,1278,-22.01953,-47.87941,244,0,24,47
L,Comercial,Jardim Brasil,Rua Jesuíno de Arruda,Sala,2610,,28,,1,,,1500,-22.01953,-47.87941,207,0,28,47
L,Comercial,CENTRO,Rua José Bonifácio,Sala,869,,12,,1,,,667,-22.02117,-47.89374,136,0,12,
L,Comercial,CENTRO,Rua José Bonifácio,Sala,869,,12,,1,,,667,-22.02117,-47.89374,120,0,12,
SL,Terreno,Cidade Aracy,Rua Lourenço Mascarin,Comercial,1034,250,250,,,,,556,-22.061,-47.9051,178,0,,35
L,Apartamentos,Jardim Paraíso,RUA ALICE J. DANNA JULIANA,Kitnet,152,,30,1,1,,1,556,-22.00538,-47.90163,703,0,30,
L,Apartamentos,Jardim Paraíso,RUA ALICE J. DANNA JULIANA,Kitnet,152,,30,1,1,,1,556,-22.00538,-47.90163,483,0,30,
SL,Apartamentos,Parque Sabará,Rua Doutor Marino Costa Terra,Padrão,370,,56,2,1,1,2,1000,,,122,0,56,50
L,Comercial,CENTRO,Rua Geminiano Costa,Salão,523,,125,,2,,,7223,-22.02059,-47.89226,158,0,125,
L,Comercial,CENTRO,Rua Geminiano Costa,Salão,420,,220,,1,,,4446,-22.02084,-47.89339,133,0,220,
L,Casas,Jardim Bethânia,Rua Victor Manuel de Souza Lima,Comercial,464,260,630,4,3,2,5,5557,-22.01396,-47.89976,248,0,,420
L,Apartamentos,Conjunto Habitacional Santa Angelina,Avenida João Dagnone,Kitnet,419,,28,1,1,,1,612,-21.9923918,-47.9238413,506,0,28,
L,Comercial,Centro,AV. DOUTOR CARLOS BOTELHO,Loja,2120,,,,2,,,4500,-22.0115,-47.89,226,0,,280
L,Comercial,Jardim São Carlos,RUA GENERAL OSÓRIO,Sala,677,,36,,1,,,1224,-22.02151,-47.8928,177,0,36,50
L,Casas,CENTRO,RUA BENTO CARLOS,Comercial,266,315,369,3,3,6,4,5500,-22.02265,-47.89298,166,0,,408
L,Comercial,Vila Pelicano,RUA ROBERTO SIMONSEN,Sala,100,,400,,2,,,5556,-22.0231105,-47.8980767,128,0,100,
L,Comercial,Vila Costa do Sol,RUA ESTADOS UNIDOS,Salão,1046,,120,,3,,,2223,-22.00193,-47.88064,186,0,120,80
L,Comercial,Jardim São Carlos,RUA GENERAL OSÓRIO,Loja,731,,160,,2,,,13334,-22.02149,-47.89228,210,0,160,543
L,Comercial,Vila Sonia,Avenida Doutor Pádua Salles,Sala,30,,30,1,,,1,1667,-22.03771,-47.89295,116,0,30,65
L,Comercial,Jardim São Carlos,Rua Conde do Pinhal,Loja,2187,,40.08,,1,,,2101,-22.0177,-47.88886,198,0,40.08,71
L,Comercial,Vila Costa do Sol,RUA SÃO JOAQUIM,Sala,2424,,30,,1,,,1334,-22.00409,-47.88897,150,0,30,
L,Comercial,Jardim Ricetti,RUA MAJOR MANOEL ANTÔNIO DE MATTOS,Salão,398,,35,1,,,1,1667,-22.02603,-47.88061,124,0,35,
SL,Comercial,Jardim Gibertoni,Rua Salesianos do Brasil,Salão,155,,,,1,,,1334,-22.0184805,-47.9074037,144,0,32,
L,Apartamentos,Vila Marcelino,RUA RAIMUNDO CORREA,Padrão,1381,,54,2,2,1,3,1100,-22.0318872,-47.8761533,350,0,54,86
SL,Casas,Centro,AV. DOUTOR CARLOS BOTELHO,Padrão,3414,180,319,3,2,2,4,3889,-22.01144,-47.8924,461,0,,190
L,Comercial,CENTRO,RUA SETE DE SETEMBRO,Sala,1691,,90,,1,,,1800,-22.01595,-47.89408,218,0,90,
L,Apartamentos,Parque Fehr,Servidão de Passagem João Deriggi,Padrão,181,,45,2,1,,2,723,-21.97879214,-47.93982983,530,0,45,42.37
L,Apartamentos,Parque Fehr,Servidão de Passagem João Deriggi,Padrão,181,,45,2,1,,2,778,-21.97879214,-47.93982983,252,0,45,42.37
L,Casas,Vila Elizabeth,Rua Cajucy Accioly Wanderley,Kitnet,60,25,40,1,1,1,1,845,-22.00631,-47.88459,661,0,,40
L,Comercial,Jardim São Carlos,Rua Conde do Pinhal,Ponto,2333,,526,,4,,,3335,-22.01771,-47.88761,183,0,526,630
L,Casas,Jardim Macarengo,Rua Jacinto Favoreto,Sobrado,431,134,250,3,2,1,3,1800,-22.00593,-47.89379,1198,0,,120
L,Casas,Vila Costa do Sol,Rua Campos Sales,Padrão,1874,160,180,3,1,2,3,1800,-21.9990462,-47.8859902,910,0,,102
SL,Apartamentos,Recreio São Judas Tadeu,AV. GREGÓRIO AVERSA,Padrão,427,,45,2,1,1,2,1200,-22.033343,-47.8661914,282,0,45,
L,Comercial,CENTRO,AV. DOUTOR CARLOS BOTELHO,Salão,1768,,1000,,2,26,,31200,-22.01153,-47.8936,255,0,400,328
L,Industrial,Vila Vista Alegre,Avenida Capitão Luiz Brandão,Galpão,1411,,1001,,6,,,61113,-21.99964,-47.86601,308,0,5639,3430
L,Comercial,Jardim Bethânia,Rua Victor Manuel de Souza Lima,Sala,766,,160,,6,3,,8890,-22.01421,-47.8998,338,0,160,
L,Comercial,CENTRO,RUA VINTE E OITO DE SETEMBRO,Salão,2111,,80,,2,3,,4446,-22.0104,-47.89015,321,0,80,
SL,Comercial,Jardim São João Batista,Rodovia Washington Luiz,Prédio,224,,3000,,25,25,,7000,-22.00243,-47.86817,136,0,800,
L,Comercial,SANTA FELICIA,Rua Cândido de Arruda Botelho,Barracão,2721,,250,,2,,,1667,-21.99178,-47.92506,570,0,250,110
SL,Apartamentos,Jardim São Carlos,Rua Jesuíno de Arruda,Padrão,1306,,48,2,1,1,2,1556,,,306,0,48,
L,Casas,Jardim Bandeirantes,Rua José Palone,Padrão,461,105,125,2,2,2,3,1667,-21.99989,-47.91158,820,0,,46
L,Comercial,Jardim Munique,Rua Monsenhor Romeu Tortorelli,Salão,76,,66,,1,,,889,-21.99801,-47.85865,192,0,66,
SL,Casas,Vila Brasília,RUA HONDURAS,Padrão,186,155.12,141.45,3,2,1,3,1556,-21.99866,-47.87717,382,0,,70
L,Comercial,Centreville,Rua Santa Cruz,Sala,462,,30,,1,,,646,-22.02348,-47.89017,188,0,30,217
L,Comercial,Centreville,Rua Santa Cruz,Sala,462,,30,,1,,,645,-22.02348,-47.89017,140,0,30,
L,Comercial,Centreville,Rua Santa Cruz,Sala,642,,30,,1,,,645,-22.02328,-47.88847,80,0,30,
L,Comercial,Centreville,Rua Santa Cruz,Sala,462,,30,,1,,,645,-22.02348,-47.89017,126,0,30,
L,Comercial,Centreville,Rua Santa Cruz,Sala,462,,30,,1,,,645,-22.02348,-47.89017,177,0,30,
L,Comercial,Vila Prado,Avenida Teixeira de Barros,Sala,367,,20,,1,,,570,-22.0249,-47.89911,186,0,20,
SL,Comercial,SANTA FELICIA,RUA MIGUEL PETRONI,Barracão,3320,,3760,,4,20,,11112,-21.9950935,-47.9165382,358,0,1300,
SL,Apartamentos,Romeu Santini,Rua Joaquim Ninelli,Padrão,15,,50,2,1,1,2,778,-22.02565,-47.91518,544,0,50,35
L,Casas,CENTRO,RUA FLÁVIO WELLICHAN,Kitnet,61,,32,1,1,1,1,834,-22.00989,-47.88563,1095,0,,
L,Comercial,Cidade Aracy,AV. REGIT ARAB,Salão,234,,125.6,,1,,,2000,-22.06213,-47.90331,165,0,125.6,
SL,Apartamentos,Parque Faber Castell,Pas DAS PALMEIRAS,Cobertura,659,,200,4,5,3,7,5000,-22.0166717,-47.9174912,735,0,150,
L,Apartamentos,Cidade Jardim,RUA DOS CRAVOS,Padrão,600,,40,1,1,,1,890,-21.99731,-47.89495,1226,0,40,
L,Comercial,Jardim Paulistano,Rua Iwagiro Toyama,Salão,425,,70,,4,1,,2050,-21.99433,-47.89756,192,0,70,65
L,Casas,Centreville,Rua Santa Cruz,Comercial,347,108,108,2,2,1,2,3334,-22.02333,-47.89136,228,0,,60
SL,Casas,Vila Brasília,Rua Paraguai,Padrão,624,117.5,159,3,2,2,3,1667,-21.99756,-47.87691,1445,1,,75
L,Comercial,Vila Costa do Sol,RUA SÃO JOAQUIM,Sala,1852,,20,,1,,,1000,-22.0024,-47.88913,195,0,20,
L,Comercial,Vila Monteiro (Gleba I),Rua São Joaquim,Salão,2420,,205,,2,,,8890,,,199,0,150,
L,Terreno,CENTRO,RUA EPISCOPAL,Comercial,2020,0,700,,,,,20001,-22.01268,-47.89169,149,0,,0
SL,Apartamentos,Vila Monteiro (Gleba I),Rua São Joaquim,Padrão,885,,,2,2,1,2,1112,,,273,0,80,110
L,Comercial,Parque Novo Mundo,Rua Vanderlei Quelé de Lima,Barracão,44,,430.5,,2,3,,8890,-22.06466,-47.88702,171,0,365,150
L,Comercial,Parque Novo Mundo,Rua Vanderlei Quelé de Lima,Barracão,44,,430.5,,2,,,10000,-22.06466,-47.88702,210,0,430.5,150
L,Comercial,Vila Monteiro (Gleba I),Rua Rui Barbosa,Sala,1182,,200,,2,3,,7778,-22.01628,-47.88668,154,0,200,95
L,Comercial,Jardim São Carlos,RUA GENERAL OSÓRIO,Sala,822,,200,,2,,,1667,-22.02175,-47.89136,214,0,200,60
L,Casas,Vila Monteiro (Gleba I),Rua Rui Barbosa,Padrão,862,50,50,1,1,,1,1000,-22.0193,-47.88662,688,0,,
SL,Casas,Vila Boa Vista,Rua Benjamin Constant,Padrão,815,232,300,3,2,2,4,3000,-22.0284288,-47.9030211,240,0,,150
L,Casas,CENTRO,RUA AQUIDABAN,Comercial,227,225,250,4,3,3,5,1889,-22.02225,-47.89468,405,0,,
L,Comercial,CENTRO,RUA SETE DE SETEMBRO,Sala,2589,,30,,1,,,889,-22.0157551,-47.883165,573,0,30,50
L,Casas,Cidade Aracy,Avenida Vicente Laurito,Comercial,30,900,900,3,3,2,4,11112,-22.06211,-47.89659,209,0,,
L,Casas,Jardim Santa Maria II,Avenida Capitão Luiz Brandão,Padrão,2200,70,350,2,1,8,2,946,-21.9944084,-47.8633239,1816,0,,0
L,Comercial,Vila Prado,Avenida Teixeira de Barros,Sala,917,,90,,2,,,2223,-22.02917,-47.89626,258,0,90,0
L,Comercial,Vila Prado,Avenida Teixeira de Barros,Galpão,588,,2600,,6,,,35000,-22.0265409,-47.8979265,226,0,2000,
L,Casas,CENTRO,RUA MAJOR JOSÉ INÁCIO,Sobrado,3122,180,250,3,2,2,4,2701,-22.01682,-47.87979,804,0,,235.72
L,Comercial,Jardim Alvorada,Rua Luiz Barbosa de Campos,Sala,420,,26.34,,1,,,2223,-22.00829,-47.90658,157,0,26.34,0
SL,Casas,Parque Faber Castell,Passeio das Palmeiras,Condomínio,321,355,484,3,6,4,6,11000,-22.01914488,-47.92050183,448,0,,450
L,Apartamentos,Parque Fehr,Servidão de Passagem João Deriggi,Padrão,181,,45,2,1,1,2,1113,-21.97879214,-47.93982983,496,0,45,0
SL,Casas,Jardim Brasil,Rua Eugênio Franco de Camargo,Sobrado,1110,250,350,2,4,3,4,7778,-22.02101,-47.87787,392,0,,0
L,Comercial,Vila Prado,Avenida Teixeira de Barros,Barracão,772,,200,,1,,,5000,-22.02817,-47.89734,267,0,200,298.63
L,Terreno,Recreio São Judas Tadeu,Avenida Getúlio Vargas,Comercial,0,,2000,,,,,5400,-22.03487,-47.87105,152,0,,
L,Terreno,Recreio São Judas Tadeu,Avenida Getúlio Vargas,Padrão,0,,2000.4,,,,,,-22.03487,-47.87105,152,0,,
SL,Comercial,CENTRO,Rua Major José Inácio,Salão,2066,,642,,4,,,15000,-22.01703,-47.89031,276,0,642,1370
L,Comercial,Vila Monteiro (Gleba I),RUA DONA ALEXANDRINA,Ponto,1491,,611.56,,2,,,4500,-22.0127664,-47.8899807,148,0,611.56,400
SL,Casas,Jardim Tangará,Rua Affonso Galucci,Padrão,33,90,125,2,1,1,2,1223,-22.00906,-47.85647,1547,0,,40
L,Comercial,Jardim Brasil,Rua Dona Maria Izabel de Oliveira Botelho,Salão,1995,,90,,1,1,,1112,-22.01997,-47.87891,428,0,90,40
L,Casas,CENTRO,RUA VISCONDE DE INHAÚMA,Sobrado,1329,120,120,3,2,2,4,2224,-22.0158225,-47.8966021,1235,0,,60
L,Apartamentos,Vila Monteiro (Gleba I),RUA DONA ALEXANDRINA,Padrão,1779,,180,3,3,2,4,2668,-22.01002,-47.88999,953,0,180,250
L,Apartamentos,Jardim Santa Paula,Rua José Duarte de Souza,Kitnet,925,,29,1,1,,1,800,-21.99671,-47.89788,593,0,29,
L,Comercial,Vila Prado,Avenida Teixeira de Barros,Salão,1208,,180,,2,,,2450,-22.03153,-47.8951,331,0,180,130
L,Apartamentos,Jardim Gibertoni,Rua Salesianos do Brasil,Cobertura,105,,14,3,3,2,5,3667,-22.0188541,-47.9072237,697,0,140,200
SL,Comercial,Parque Faber Castell,Rua Passeio dos Ipês,Sala,320,,41,,1,1,,1560,-22.01963,-47.91604,449,0,41,80
L,Casas,Jardim Brasil,Rua Jesuíno de Arruda,Padrão,3245,125,320,3,2,3,3,2779,-22.01939,-47.87923,499,0,,100
L,Apartamentos,Romeu Santini,Rua Joaquim Ninelli,Padrão,12,,51.41,2,1,1,2,550,-22.02557,-47.91497,466,0,51.41,
SL,Apartamentos,Parque Arnold Schimidt,Rua Luiz Saia,Padrão,220,,62,2,2,1,3,1445,-22.00142,-47.90121,1209,1,62,95
L,Terreno,Parque Santa Mônica,Avenida Tancredo de Almeida Neves,Comercial,500,0,1500,,,,,35001,-22.02289,-47.91005,96,0,,
L,Comercial,Jardim São Carlos,RUA GENERAL OSÓRIO,Loja,853,,220,,1,,,18500,-22.02145,-47.89112,226,0,220,
L,Comercial,Jardim Munique,Rua Oswaldo Denari,Salão,870,,40,,1,,,889,-21.9999,-47.85719,401,0,40,
SL,Comercial,CENTRO,Rua OSWALDO DE ASSIS PEREIRA,Loja,76,,30.75,,1,1,,1335,-22.01002387,-47.89577723,692,0,30.75,24.77
L,Apartamentos,Recreio São Judas Tadeu,Avenida Gregório Aversa,Padrão,627,,47,2,1,1,2,1120,-22.0337254,-47.8653803,358,1,47,73
L,Casas,SANTA FELICIA,Rua Luiz Pedro Biachini,Padrão,219,102.62,150,2,1,2,2,1556,-21.99806,-47.91681,393,0,,46
L,Apartamentos,Residencial Monsenhor Romeu Tortorelli,Avenida João Stella,Padrão,300,,45,2,1,1,2,1000,-22.00472,-47.92353,192,0,45,41
L,Apartamentos,Residencial Monsenhor Romeu Tortorelli,AV. JOÃO STELLA,Padrão,480,,50,2,1,1,2,670,,,385,0,50,17
L,Comercial,Jardim Brasil,Rua Eugênio Franco de Camargo,Ponto,1962,,100,,1,,,2223,-22.01374,-47.87796,216,0,100,113
L,Casas,Parque Tecnológico Damha,RUA MIGUEL DAMHA,Sobrado,800,354,495,3,4,4,6,10001,-21.9649,-47.89672,606,0,,467.7
SL,Apartamentos,Parque Fehr,Servidão de Passagem João Deriggi,Padrão,181,,45,2,1,1,2,890,-21.97879214,-47.93982983,441,0,45,35
L,Casas,Jardim Jóckei Club A,RUA RAY WESLEY HERRICK,Condomínio,1500,170,270,3,4,4,6,5556,-21.98221,-47.89584,290,0,,191.74
L,Terreno,Jardim Bandeirantes,Rua Miguel João,Comercial,0,,2700,,,,,1113,-22.00096,-47.90719,152,0,,100.64
L,Terreno,Jardim Bandeirantes,Rua Miguel João,Comercial,0,,2700,,,,,1112,-22.00096,-47.90719,114,0,,100.64
L,Terreno,Jardim Bandeirantes,Rua Miguel João,Comercial,0,,2700,,,,,1112,-22.00096,-47.90719,163,0,,100.64
L,Terreno,Jardim Bandeirantes,Rua Miguel João,Comercial,0,,2700,,,,,1112,-22.00096,-47.90719,206,0,,100.64
L,Terreno,Jardim Bandeirantes,Rua Miguel João,Comercial,0,,2700,,,,,1112,-22.00096,-47.90719,219,0,,100.64
L,Terreno,Jardim Bandeirantes,Rua Miguel João,Comercial,0,,2700,,,,,1112,-22.00096,-47.90719,252,0,,100.64
L,Terreno,Jardim Bandeirantes,Rua Miguel João,Comercial,0,,2700,,,,,1112,-22.00096,-47.90719,178,0,,100.64
L,Terreno,Jardim Bandeirantes,Rua Miguel João,Comercial,0,,2700,,,,,1112,-22.00096,-47.90719,239,0,,100.64
L,Terreno,Jardim Bandeirantes,Rua Miguel João,Comercial,0,,2700,,,,,1113,-22.00096,-47.90719,167,0,,100.64
L,Comercial,Jardim Brasil,Rua Major Manoel Antônio de Mattos,Salão,1402,,40,,1,,,3001,-22.01633,-47.88078,263,0,40,0
L,Comercial,Jardim Jóckei Club A,RUA RIO PARANÁ,Salão,399,,50,,2,,,1667,-21.98148,-47.89999,190,0,50,
SL,Casas,Jardim Alvorada,Rua Doutor Domingos Faro,Sobrado,61,303,312,3,4,8,5,5000,-22.00991,-47.90868,349,0,,240
SL,Casas,Jardim Santa Paula,RUA OSCAR DE SOUZA GERIBELO,Padrão,484,180,300,3,3,5,4,3001,-21.99874,-47.89999,808,0,,126.77
L,Comercial,Jardim Paraíso,Rua Maestro João Seppe,Sala,900,,40,,2,,,1889,,,425,0,30,
L,Casas,Jardim Bandeirantes,Rua José Palone,Padrão,151,80,125,2,1,2,2,1556,-22.00103,-47.90883,417,1,,40
L,Comercial,CENTRO,RUA EPISCOPAL,Loja,994,,100,,1,,,2223,-22.02182,-47.89153,468,0,100,
L,Comercial,Jardim Paraíso,Rua Paulino Botelho de Abreu Sampaio,Sala,1151,,14,,1,,,1501,-22.00659,-47.90106,236,0,14,
L,Apartamentos,Vila Rancho Velho,Rua Theodolina Modena Coca,Padrão,85,,50,2,1,1,2,778,-22.01084,-47.86918,1217,0,50,30
L,Casas,Vila Brasília,Rua Peru,Padrão,136,128.01,140,3,2,2,4,2000,-21.99825,-47.87893,1079,0,,72.63
SL,Casas,Parque Industrial,Rua Rodolfo Luporini,Padrão,225,323,300,4,5,4,8,3334,-21.990165,-47.9010802,442,0,,190
L,Comercial,Jardim Paulistano,Rua Iwagiro Toyama,Sala,425,,40,,1,,,790,-21.99433,-47.89756,493,0,40,75
L,Comercial,CENTRO,RUA PADRE TEIXEIRA,Salão,1702,,105,,2,,,4000,-22.01423,-47.89403,405,0,105,85.29
L,Apartamentos,Jardim Paraíso,Rua Maestro João Seppe,Padrão,303,,60,3,2,2,4,2000,-22.01402,-47.9019,197,0,60,84
L,Apartamentos,Jardim Embaré,Rua Ray Wesley Herrick,Padrão,5401,,40,2,1,1,2,667,-21.97113,-47.90178,1053,0,40,39.5
L,Comercial,Jardim São João Batista,Rua Antônio Blanco,Sala,1411,,36,,1,,,945,-22.00318,-47.8776,318,0,36,10
L,Casas,SANTA FELICIA,RUA JÚLIO CASSIN FILHO,Padrão,348,70,250,2,2,1,3,1334,-21.9994918,-47.9214459,900,0,,21.29
L,Casas,Vila Prado,RUA LUIZ GAMA,Padrão,24,130,200,3,2,2,4,1400,-22.02256,-47.90133,650,0,,32
L,Apartamentos,Centro,Rua Marechal Deodoro,Padrão,1460,,74,2,2,2,3,2000,-22.01527076,-47.89613127,970,0,74,97.07
L,Apartamentos,Jardim Ipanema,Rua Laura Villani Piovesan,Padrão,65,,45,2,1,1,2,1000,-21.98694,-47.92543,156,0,45,42
L,Casas,Jardim Nova São Carlos,Rua Antônio Masselli,Padrão,225,150,300,3,2,2,4,2334,-22.02769,-47.87418,688,0,,111.79
L,Comercial,Jardim Brasil,Rua Geminiano Costa,Salão,625,,300,,2,,,7300,-22.02043,-47.87939,327,0,350,
L,Casas,Jardim das Torres,RUA ARACY BORDINI DO AMARAL TOLEDO,Padrão,25,60,300,2,1,10,2,1112,-22.0337,-47.91157,373,0,,
L,Comercial,CENTRO,Rua Sete de Setembro,Sala,3134,,14.81,,1,,,978,-22.01594,-47.89884,521,0,14.81,85.76
L,Comercial,CENTRO,Rua Sete de Setembro,Sala,3134,,13.18,,1,,,980,-22.01594,-47.89884,302,0,13.18,85.76
L,Comercial,CENTRO,RUA SETE DE SETEMBRO,Sala,2589,,50,,1,,,1112,-22.0157551,-47.883165,557,0,50,50
L,Comercial,Jardim Paulista,Rua José Mancini,Barracão,453,,900,,3,,,7223,-22.02198,-47.90806,267,1,600,350
L,Comercial,CENTRO,Avenida São Carlos,Sala,1065,,30,,1,,,1500,-22.02389,-47.89069,371,0,30,
L,Comercial,Centro,Avenida São Carlos,Sala,1065,,35,,2,,,2000,-22.02389,-47.89069,213,0,35,
L,Comercial,Centro,Avenida São Carlos,Sala,1065,,35,,2,,,2000,-22.02389,-47.89069,254,0,35,
L,Comercial,CENTRO,Rua Geminiano Costa,Sala,411,,30,,2,,,556,-22.02062,-47.89334,452,0,30,0
SL,Terreno,Jardim Nova São Carlos,RUA ORLANDO MARTINEZ,Lote,,,600,,,,,1112,,,299,0,,206
L,Apartamentos,Parque Faber Castell,Passeio das Magnólias,Padrão,281,,65.72,2,2,1,3,2223,-22.01378,-47.91817,418,0,65.72,
L,Terreno,Vila Costa do Sol,RUA MARIA TAVARES LEANDRO,Comercial,170,,387,,,,,1112,-22.00537,-47.88064,306,0,,
L,Apartamentos,Jardim Paulistano,Rua Iwagiro Toyama,Padrão,96,,40,1,1,,1,778,,,1079,0,40,64
SL,Apartamentos,Romeu Santini,Rua Joaquim Ninelli,Padrão,15,,55,2,1,1,2,723,,,822,0,55,25
L,Comercial,Centro,Avenida São Carlos,Salão,571,,396,,3,,,8890,-22.02854,-47.89061,375,0,451,
L,Apartamentos,Tutoya do Vale,Rua SEBASTIÃO RAMOS,Padrão,50,,90,3,1,,3,1112,-21.92645,-47.89789,268,0,90,
L,Apartamentos,Jardim Paraíso,RUA ALICE J. DANNA JULIANA,Kitnet,152,,30,1,1,,1,556,-22.00538,-47.90163,1405,0,30,
L,Casas,Jardim Medeiros,RUA ELEUTÉRIO MALERBA,Padrão,327,112,138,2,1,2,2,1223,-22.03866,-47.91796,311,0,,19.04
L,Comercial,Jardim Brasil,Rua Jesuíno de Arruda,Salão,1533,,249.3,,2,,,4445,-22.01953,-47.87941,226,0,249.3,
L,Comercial,Jardim Brasil,Rua Jesuíno de Arruda,Salão,1533,,338.31,,2,,,5000,-22.01953,-47.87941,209,0,338.31,
L,Apartamentos,Jardim Bicão,Avenida Maria Consuelo Brandão Tolentino,Padrão,212,,40,1,1,,1,889,-22.02852,-47.91111,623,0,40,0
L,Apartamentos,Jardim Bicão,Avenida Maria Consuelo Brandão Tolentino,Padrão,212,,40,1,1,,1,889,-22.02852,-47.91111,419,0,40,0
L,Apartamentos,Jardim Paraíso,RUA PROF. NICOLETA STELLA GERMANO,Cobertura,60,,150,3,3,2,4,2060,-22.00538,-47.90096,338,0,150,158
L,Apartamentos,Jardim Ricetti,Rua Professor Paulo Monte Serrat,Padrão,540,,91.11,3,2,2,4,1778,,,382,0,91.11,112
SL,Terreno,Centro,Rua Joaquim Evangelista de Toledo,Comercial,69,0,600,,,,,1112,-22.02975,-47.89253,285,0,,
L,Terreno,CENTRO,RUA QUINZE DE NOVEMBRO,Comercial,1665,,200,,,,,1112,-22.01225,-47.89426,235,0,,
SL,Apartamentos,Parque Faber Castell,Pas DAS PALMEIRAS,Padrão,861,,109,2,3,2,4,4445,-22.01629,-47.91655,677,0,109,360
SL,Casas,Jardim dos Coqueiros,RUA PROFESSOR MOACIR MOREIRA CEZAR,Padrão,140,95,125,2,2,2,3,1600,-21.996,-47.85817,884,0,,
SL,Apartamentos,Jardim Paraíso,Rua Conselheiro Soares Brandão,Padrão,1104,,43,1,1,1,1,667,,,336,0,43,40
L,Apartamentos,Vila Jacobucci,RUA ANTENOR RODRIGUES CAMARGO,Kitnet,375,,30,1,1,,1,667,-22.0044,-47.871,630,0,30,
L,Comercial,CENTRO,AV. AVENIDA SÃO CARLOS,Sala,2505,,15,,1,,,1334,-22.01115,-47.89098,519,0,15,
L,Comercial,CENTRO,AV. AVENIDA SÃO CARLOS,Sala,2505,,15,,1,,,1112,-22.01115,-47.89098,469,0,15,
L,Comercial,Centro,AV. AVENIDA SÃO CARLOS,Sala,2505,,25,,1,,,1445,-22.01115,-47.89098,310,0,25,
L,Comercial,CENTRO,AV. AVENIDA SÃO CARLOS,Sala,2505,,30,,1,,,1334,-22.01115,-47.89098,237,0,30,
L,Casas,Chácara Parollo,RUA PADRE TEIXEIRA,Padrão,3766,,,2,1,,2,5001,-22.01326,-47.87395,134,0,,
SL,Apartamentos,Jardim Lutfalla,Rua Cézar Ricomi,Kitnet,233,,35,1,1,,1,767,,,2560,0,35,
SL,Apartamentos,Jardim Lutfalla,Rua Cézar Ricomi,Cobertura,233,,40,1,1,,1,910,,,673,0,40,
L,Apartamentos,Jardim Lutfalla,Rua Cézar Ricomi,Kitnet,233,,35,1,1,,1,760,,,117,0,35,0
SL,Apartamentos,Jardim Lutfalla,Rua Cézar Ricomi,Cobertura,233,,40,1,1,,1,910,,,411,0,40,
SL,Apartamentos,Jardim Lutfalla,Rua Cézar Ricomi,Kitnet,233,,35,1,1,,1,760,,,561,0,35,
SL,Apartamentos,Jardim Lutfalla,Rua Cézar Ricomi,Kitnet,233,,35,1,1,,1,760,,,355,0,35,
SL,Apartamentos,Jardim Lutfalla,Rua Cézar Ricomi,Kitnet,233,,35,1,1,,1,760,,,428,0,35,
SL,Apartamentos,Jardim Lutfalla,Rua Cézar Ricomi,Kitnet,233,,35,1,1,,1,760,,,411,0,35,
SL,Apartamentos,Jardim Lutfalla,Rua Cézar Ricomi,Kitnet,233,,35,1,1,,1,760,,,357,0,35,
SL,Apartamentos,Jardim Lutfalla,Rua Cézar Ricomi,Kitnet,233,,35,1,1,,1,760,,,384,0,35,
SL,Apartamentos,Jardim Lutfalla,Rua Cézar Ricomi,Kitnet,233,,35,1,1,,1,760,,,230,0,35,
SL,Apartamentos,Jardim Lutfalla,Rua Cézar Ricomi,Kitnet,233,,35,1,1,,1,760,,,329,0,35,
SL,Apartamentos,Jardim Lutfalla,Rua Cézar Ricomi,Kitnet,233,,35,1,1,,1,760,,,324,0,35,
SL,Apartamentos,Vila Monteiro (Gleba I),RUA SÃO JOAQUIM,Padrão,1607,,120,3,3,1,4,1334,-22.01208,-47.88894,2353,0,120,93.09
SL,Casas,Cidade Jardim,Alameda das Rosas,Padrão,470,204,300,3,2,3,4,2556,-21.99877,-47.89571,1108,0,,210
SL,Apartamentos,Jardim Lutfalla,Rua Cézar Ricomi,Kitnet,233,,35,1,1,,1,760,,,507,0,35,
SL,Apartamentos,Jardim Lutfalla,Rua Cézar Ricomi,Kitnet,233,,35,1,1,,1,760,,,332,0,35,
SL,Apartamentos,Jardim Lutfalla,Rua Cézar Ricomi,Kitnet,233,,35,1,1,,1,760,,,336,0,35,
SL,Apartamentos,Jardim Lutfalla,Rua Cézar Ricomi,Kitnet,233,,35,1,1,,1,767,,,502,0,35,
L,Comercial,Jardim São Carlos,RUA GENERAL OSÓRIO,Galpão,442,,119,,1,,,7778,-22.02178,-47.89508,188,0,119,100
L,Comercial,Vila Monteiro (Gleba I),RUA DONA ALEXANDRINA,Sala,1525,,20,,1,,,889,-22.01218,-47.89,573,0,20,
L,Comercial,Jardim São Carlos,Rua Geminiano Costa,Sala,260,,80,,3,,,2300,-22.02095,-47.89614,334,0,80,
SL,Casas,CENTRO,RUA MARECHAL DEODORO,Comercial,1775,306.56,412.4,4,4,3,5,6667,-22.01501,-47.89304,595,0,,344.23
SL,Comercial,CENTRO,RUA QUINZE DE NOVEMBRO,Salão,1867,,420,,3,,,6501,-22.01222,-47.89235,424,0,300,400
SL,Casas,Parque Santa Marta,AV. DEMÉTRIO MITRE,Padrão,131,336.92,360,4,4,2,6,5650,-21.99743,-47.90918,278,0,,
SL,Apartamentos,Vila Irene,Rua Doutor Joaquim Inácio de Moraes,Padrão,260,,44,2,1,1,2,1000,-22.03071,-47.88303,778,0,44,35
L,Comercial,Vila Costa do Sol,RUA SÃO JOAQUIM,Sala,1852,,250,,1,,,1000,-22.00305,-47.87952,484,0,40,
L,Comercial,Vila Costa do Sol,RUA SÃO JOAQUIM,Sala,1852,,250,,1,,,1000,-22.00305,-47.87952,568,0,28,
L,Casas,Vila Boa Vista,Rua Francisco de Oliveira Penteado,Padrão,234,155.8,250,3,2,2,4,3000,-22.02747,-47.90486,996,0,,83
L,Casas,Cidade Jardim,Rua das Camélias,Padrão,112,140,180,3,3,2,4,2223,-21.99884,-47.89397,805,0,,81
L,Comercial,Vila Faria,Rua da Imprensa,Sala,35,,20,,1,,,889,-22.0145,-47.87659,304,0,20,0
L,Casas,Jardim Lutfalla,RUA JACINTO FAVORETO,Sobrado,902,220,300,4,3,2,6,3501,-22.00601,-47.88917,521,0,,180
SL,Casas,Vila Prado,Rua Cândido Padim,Padrão,185,180,235,4,3,2,6,1667,,,356,0,,180
L,Apartamentos,SANTA FELICIA,Rua Affonso Botelho de Abreu Sampaio,Kitnet,80,,40,1,1,1,1,778,-21.99871,-47.91324,1294,0,40,74.58
L,Apartamentos,Vila Celina,Rua Porto Alegre,Kitnet,105,,30,1,1,1,1,613,-21.99207,-47.89059,745,0,30,25
SL,Casas,Vila Carmem,Rua Cícero Soares Ribeiro,Sobrado,225,157.63,200,2,1,2,2,1334,,,193,0,,77
SL,Apartamentos,CENTRO,AV. DOUTOR CARLOS BOTELHO,Padrão,2220,,206.91,3,4,3,6,4100,-22.01144,-47.88911,1606,0,206.91,230
SL,Comercial,Centro,RUA VISCONDE DE INHAÚMA,Galpão,558,,300,,1,,,2500,-22.01924,-47.89653,443,0,230,109.34
L,Comercial,Vila Monteiro (Gleba I),Rua São Paulo,Sala,571,,20,,1,,,1000,,,306,0,20,
L,Comercial,Vila Monteiro (Gleba I),Rua São Paulo,Sala,571,,16,,1,,,889,,,247,0,16,
L,Comercial,Vila Monteiro (Gleba I),Rua São Paulo,Sala,577,,16,,,,,778,,,327,0,16,
L,Comercial,Vila Monteiro (Gleba I),Rua São Paulo,Sala,577,,25,,,,,889,,,237,0,25,
L,Comercial,CENTRO,Rua Sete de Setembro,Sala,3134,,13.82,,1,1,,980,-22.01594,-47.89884,534,0,13.82,85.76
L,Comercial,CENTRO,Rua Sete de Setembro,Sala,3134,,14.79,,1,1,,980,-22.01594,-47.89884,208,0,14.79,87.43
L,Apartamentos,Vila Brasília,Rua Eugênio de Andrade Egas,Kitnet,220,,35,1,1,1,1,650,-21.9989699,-47.8861739,864,0,35,50
L,Apartamentos,Parque Arnold Schimidt,Rua Thomaz Antônio Gonzaga,Padrão,85,,35,1,1,,1,1100,-22.00171,-47.89754,223,0,35,19
L,Casas,CENTRO,RUA MAJOR JOSÉ INÁCIO,Padrão,1686,132,150,3,2,4,4,2000,-22.01705,-47.89404,390,0,,96
L,Apartamentos,Parque Arnold Schimidt,Rua Luiz Saia,Kitnet,158,,35,1,1,,1,778,-22.00181,-47.90124,789,0,35,
SL,Comercial,Vila Prado,RUA DOUTOR BERNARDINO DE CAMPOS,Barracão,1667,,170,,1,,,3000,-22.03516,-47.8937,1856,0,170,
L,Comercial,Distrito Industrial Miguel Abdelnur,Rua João Abdelnur,Barracão,370,,1700,,2,,,6113,-22.04043,-47.87356,331,0,373,154.38
L,Comercial,Loteamento Habitacional São Carlos 1,RUA DOUTOR PROCÓPIO TOLEDO MALTA,Salão,875,,20,,1,0,,889,-21.9943,-47.92006,283,0,20,0
SL,Apartamentos,Parque Arnold Schimidt,AV. FRANCISCO PEREIRA LOPES,Padrão,2259,,41,1,1,1,1,1334,-22.00081,-47.90003,951,0,41,
SL,Apartamentos,Parque Arnold Schimidt,AV. FRANCISCO PEREIRA LOPES,Padrão,2259,,41,1,1,1,1,1334,-22.00081,-47.90003,682,0,41,
L,Comercial,CENTRO,RUA EPISCOPAL,Ponto,2695,,140,,2,,,4445,-22.00638,-47.89208,256,0,140,90
SL,Apartamentos,Jardim Embaré,Rua Ray Wesley Herrick,Padrão,5441,,48,2,1,1,2,834,-21.97513,-47.93328,1470,0,48,35
L,Comercial,Jardim Beatriz,RUA PROFESSORA ELYDIA BENETTI,Salão,1225,,40,,1,,,667,,,554,0,40,38
L,Comercial,Parque Novo Mundo,Rua Joel Barnabé,Galpão,212,,10.8,,2,4,,13335,-22.06552,-47.886,272,0,730,
L,Comercial,Vila Izabel,RUA SANTA GERTRUDES,Salão,825,,120,,1,,,2223,-22.03645,-47.88432,214,0,,0
L,Comercial,Jardim Paulistano,Rua Iwagiro Toyama,Salão,390,,70,,1,,,945,,,333,0,70,71
L,Comercial,Jardim Jóckei Club A,Rua Rio Paranapanema,Salão,140,,40,,1,,,800,,,233,0,40,35
SL,Apartamentos,SANTA FELICIA,Avenida Bruno Ruggiero Filho,Cobertura,101,,159,3,2,2,4,2600,-22.01063063,-47.91448832,1460,0,131.48,75
SL,Casas,Parque Santa Mônica,RUA QUINZE DE NOVEMBRO,Padrão,646,441.51,614,5,4,4,8,8000,-22.0125,-47.9044,1022,0,,654
SL,Comercial,Jardim São Carlos,Rua Conde do Pinhal,Prédio,2765,,1010,,6,6,,12000,,,259,0,758,0
L,Comercial,RESIDENCIAL ITAMARATI,Rua Winston Monteiro Ricetti,Salão,360,,250,,2,,,1778,,,345,0,250,50
L,Comercial,CENTRO,Rua Major José Inácio,Ponto,1700,,402,,1,,,3334,-22.01699,-47.894,341,0,70,235.37
SL,Apartamentos,Parque Arnold Schimidt,Rua Thomaz Antônio Gonzaga,Padrão,333,,66,1,1,1,1,1090,-22.00173,-47.89623,626,0,66,50
L,Apartamentos,Jardim Paraíso,Rua Doutor Serafim Vieira de Almeida,Studio,795,,39,1,1,1,1,1250,-22.00952,-47.90376,436,1,39,46
SL,Casas,Parque Tecnológico Damha,Avenida Miguel Damha,Condomínio,1000,386,587,4,4,4,8,8889,-21.96523586,-47.89675355,582,0,,550
L,Casas,Jardim Pacaembu,Avenida Maranhão,Sobrado,522,120,220,3,2,4,4,1612,,,212,0,,80
L,Comercial,Chácara São João,Rua Quinze de Novembro,Galpão,3835,,1200,,1,,,12001,-22.01231,-47.8737,312,0,1200,0
SL,Apartamentos,Parque Faber Castell,Passeio das Magnólias,Padrão,345,,76,2,1,2,3,3000,-22.01308,-47.91926,1362,0,76,0
SL,Casas,Cidade Aracy,AV. ARNOLDO ALMEIDA PIRES,Comercial,755,280,350,4,9,2,5,4000,-22.05414,-47.90712,335,0,,84.91
L,Comercial,Jardim São Carlos,AV. COMENDADOR ALFREDO MAFFEI,Salão,2247,,100,,1,,,2778,-22.02021,-47.89332,219,0,100,0
L,Comercial,Jardim São Carlos,AV. COMENDADOR ALFREDO MAFFEI,Salão,2241,,100,,1,,,2779,,,163,0,100,0
L,Comercial,Vila Brasília,RUA LUIZ MARTINS RODRIGUES,Salão,833,,50,,1,,,1200,-21.99938,-47.88307,496,0,50,
L,Comercial,Jardim Santa Maria II,Avenida Capitão Luiz Brandão,Galpão,2200,,300,,1,,,2667,-22.00084,-47.86635,267,0,300,
SL,Casas,Jardim Beatriz,Rua Francisco Schiavone,Sobrado,853,342.25,250,4,3,5,5,3350,-22.0331,-47.90803,620,0,,310
L,Apartamentos,SANTA FELICIA,Rua Affonso Botelho de Abreu Sampaio,Padrão,80,,35,1,1,1,1,834,-21.99871,-47.91324,98,0,35,75
L,Casas,CENTRO,Rua José Bonifácio,Padrão,1509,112.04,158.6,2,1,2,2,2224,-22.01541,-47.89385,758,0,,73.72
SL,Apartamentos,Vila Brasília,Rua Costa Rica,Cobertura,75,,90,2,2,1,3,1956,-21.99555,-47.88186,510,0,90,90
L,Apartamentos,Parque Arnold Schimidt,Rua Miguel Alves Margarido,Padrão,280,,45,2,2,1,3,2500,-22.00328,-47.89482,533,0,45,145
L,Apartamentos,Centro,Rua Marechal Deodoro,Padrão,1460,,74,2,2,2,3,2556,-22.01527076,-47.89613127,133,0,74,156
SL,Apartamentos,CENTRO,Rua Major José Inácio,Padrão,1985,,210,3,3,1,4,1801,,,1433,0,210,180
L,Apartamentos,Jardim Paraíso,JOAQUIM RODRIGUES BRAVO,Kitnet,75,,30,1,1,1,1,600,-22.00872,-47.9005,862,0,30,
SL,Apartamentos,Jardim Bethânia,Rua Padre Teixeira,Padrão,1357,,280,4,3,3,6,6000,-22.01409,-47.89711,1042,0,280,360
L,Casas,Jardim Jóckei Club A,RUA RAY WESLEY HERRICK,Condomínio,1500,270,316.5,3,4,2,6,7223,-21.98329,-47.89541,342,0,,310
L,Terreno,Jardim Ipanema,Avenida Romualdo Villani,Comercial,0,,250,,,,,889,-21.98808,-47.92951,239,0,,60
SL,Comercial,Vila Prado,Rua Cândido Padim,Sobrado,215,,250,3,2,3,3,2300,,,282,0,250,157
L,Comercial,CENTRO,RUA MAJOR JOSÉ INÁCIO,Sala,1738,,40,,2,,,1113,,,355,0,40,
L,Comercial,CENTRO,RUA MAJOR JOSÉ INÁCIO,Sala,1738,,120,,2,,,5556,,,164,0,120,
L,Comercial,Centro,RUA MAJOR JOSÉ INÁCIO,Sala,1738,,24,,2,,,1334,,,119,0,,
L,Comercial,CENTRO,RUA MAJOR JOSÉ INÁCIO,Sala,1738,,14,,2,,,1257,,,108,0,,
L,Apartamentos,CENTRO,Rua Sete de Setembro,Padrão,1291,,30,1,1,,1,1290,,,93,0,,13
SL,Casas,Jardim São Carlos,Rua Treze de Maio,Padrão,2538,174.89,348.21,4,1,4,4,1445,-22.01889,-47.89904,571,0,,140
L,Comercial,Vila São José,Rua José Leme Marques,Barracão,245,,,,1,,,1700,,,559,0,70,0
SL,Apartamentos,Jardim Paraíso,Rua Conselheiro João Alfredo,Kitnet,540,,30,1,1,,1,990,,,965,0,30,50
L,Comercial,Jardim Brasil,Rua Eugênio Franco de Camargo,Barracão,1909,,306,,,12,,2778,-22.01439,-47.87809,476,0,306,110
L,Apartamentos,Vila Celina,RUA ARTHUR DE OLIVEIRA LIMA,Kitnet,258,,30,1,1,,1,566,-21.9947168,-47.8882352,354,1,30,
SL,Terreno,Jardim São Carlos,AV. COMENDADOR ALFREDO MAFFEI,Padrão,1730,,750,,,,,3334,,,361,0,,
SL,Comercial,Jardim Maracanã,RUA PROFESSOR ANTÔNIO MUNHOZ,Barracão,91,,300,,1,,,4500,,,515,0,223.54,104
SL,Apartamentos,Jardim Paraíso,Rua Paulino Botelho de Abreu Sampaio,Padrão,1057,,71,2,2,1,3,1334,-22.00766,-47.90101,1943,0,71,
SL,Casas,Vila Costa do Sol,Rua Presidente Vargas,Padrão,644,215,700,4,7,6,8,5556,-22.00106,-47.88243,317,0,,380
L,Comercial,Vila Marina,Avenida Professor Luiz Augusto de Oliveira,Loja,91,,100,,2,,,17778,-21.99632,-47.89086,177,0,100,1011.02
SL,Apartamentos,Jardim Paulistano,Rua Antônio Fischer dos Santos,Padrão,159,,40,1,1,1,1,1112,-21.99707,-47.89852,770,0,40,52
L,Casas,CENTRO,RUA SÃO SEBASTIÃO,Comercial,1456,600,800,4,4,10,4,10001,,,469,0,,150
L,Apartamentos,Recreio São Judas Tadeu,Avenida Gregório Aversa,Padrão,500,,50,2,1,1,2,667,-22.03341208,-47.86691666,1235,0,50,34.07
L,Comercial,Centro,RUA SÃO SEBASTIÃO,Prédio,2341,,300,,2,6,,3800,,,374,0,150,192.6
L,Casas,Jardim Lutfalla,RUA JACINTO FAVORETO,Padrão,1067,200,300,4,4,3,7,2000,,,497,0,,161
L,Comercial,Jardim São Carlos,Rua Geminiano Costa,Salão,519,,50,,1,,,3800,,,205,0,50,
L,Comercial,Jardim São Carlos,Rua Geminiano Costa,Sala,519,,50,,1,,,1000,,,227,0,50,
SL,Comercial,Jardim São Carlos,AV. COMENDADOR ALFREDO MAFFEI,Barracão,1540,,2540,,4,,,35000,-22.01717,-47.89849,1819,0,2540,
L,Comercial,Vila Monteiro (Gleba I),RUA SÃO JOAQUIM,Galpão,130,,4000,,4,,,15001,,,229,0,1200,2500
L,Casas,Jardim Munique,Rua José Nazzari,Padrão,126,85,125,3,1,2,3,889,-21.99708,-47.86411,158,0,,
L,Casas,Vila Monteiro (Gleba I),Rua Marcolino Lopes Barreto,Padrão,462,150,70,2,1,1,2,1200,-22.02534,-47.88162,1502,0,,
L,Comercial,CENTRO,RUA SETE DE SETEMBRO,Ponto,2671,,250,,1,,,2556,-22.01582,-47.88448,384,0,131,82.96
SL,Apartamentos,Vila Costa do Sol,Rua José de Alencar,Padrão,247,,31.8,1,1,1,1,1223,-22.00287,-47.88863,618,0,31.8,73
L,Apartamentos,Residencial Parati,Travessa Francisco Latorre Primo,Padrão,180,,50,2,1,1,2,1334,,,275,0,50,77
L,Comercial,Centro,RUA MAJOR JOSÉ INÁCIO,Salão,2940,,175,,2,,,4600,-22.01688,-47.88179,278,0,175,
L,Comercial,Vila Sonia,Avenida Doutor Pádua Salles,Sala,52,,40,,1,,,779,,,179,0,40,0
L,Casas,Jardim Paraíso,Rua Princesa Isabel,Padrão,319,200,250,3,1,3,3,2501,,,603,0,,104.5
L,Casas,Condomínio Residencial Quebec,Avenida Professora Maria de Cresci Leopoldino,Condomínio,755,170,322,3,3,2,4,4500,-21.98472167,-47.93348908,1079,0,,160
L,Casas,Jardim Lutfalla,Rua Nove de Julho,Sobrado Condomínio,2585,450,1150,3,4,4,6,7900,-22.00656,-47.89306,553,0,,600
L,Casas,Chácara São Caetano,TVS ANTÔNIO GUARANTINI,Kitnet,113,40,40,1,1,,1,779,,,400,0,,30
L,Casas,Chácara São Caetano,TVS ANTÔNIO GUARANTINI,Kitnet,113,40,40,1,1,,1,778,,,330,0,,30
SL,Comercial,Jardim Munique,Rua José Nazzari,Galpão,100,,1000,,1,,,1701,,,368,0,760,516.26
L,Casas,Residencial Eldorado,Rua Miguel Petroni,Condomínio,4900,250,280,3,2,2,4,5556,,,681,0,,308.41
L,Casas,Romeu Santini,Rua Luiz Francisco Lui,Padrão,25,150,250,3,2,,3,1668,-22.02785,-47.91695,1224,0,,41.83
L,Apartamentos,Vila Rancho Velho,Rua Theodolina Modena Coca,Padrão,85,,50,2,1,1,2,600,,,1112,0,50,
L,Terreno,Vila Celina,Rua Anita Stella,Comercial,0,,2750,,,,,3001,-21.99423,-47.88922,418,0,,
L,Comercial,Jardim Brasil,Rua Major Manoel Antônio de Mattos,Sala,1400,,25,,1,,,1667,,,237,0,25,30
L,Comercial,Jardim Brasil,Rua Major Manoel Antônio de Mattos,Sala,1400,,25,,1,,,1667,,,106,0,25,30
L,Comercial,Jardim Brasil,Rua Major Manoel Antônio de Mattos,Sala,1400,,25,,1,,,1667,,,146,0,25,30
L,Casas,Jardim Araucária,Rua Antonio Selarim,Sobrado,31,150,160,3,2,2,4,2223,,,1868,0,,0
L,Casas,Cidade Jardim,Al DAS CRISANDÁLIAS,Padrão,648,200,300,3,2,2,4,3334,,,326,0,,208
SL,Comercial,Cidade Aracy,Rua Auto de Carvalho,Salão,414,,433.06,,2,,,6667,,,210,0,433.06,447.07
L,Casas,Vila Costa do Sol,Rua Antônio Rodrigues Cajado,Padrão,2067,250,150,3,3,1,4,1778,,,316,1,,98
L,Comercial,Vila Prado,RUA DOUTOR PEDRO DE SOUZA CAMPOS FILHO,Sala,776,,20,,1,,,889,,,292,0,20,0
L,Apartamentos,Distrito Industrial Miguel Abdelnur,Avenida Doutor Heitor José Reali,Garagem,1031,,45,2,1,1,2,590,-22.04005535,-47.87732363,264,0,45,36
SL,Apartamentos,Jardim Embaré,Rua Ray Wesley Herrick,Padrão,5441,,55,2,1,1,2,723,-21.97513,-47.93328,655,0,45,45
L,Comercial,CENTRO,AV. DOUTOR CARLOS BOTELHO,Sala,1816,,40,,1,,,834,,,515,0,40,0
L,Comercial,CENTRO,AV. DOUTOR CARLOS BOTELHO,Sala,1816,,40,,1,,,834,,,295,0,40,0
L,Comercial,CENTRO,AV. DOUTOR CARLOS BOTELHO,Sala,1816,,40,,1,,,834,,,670,0,40,0
L,Comercial,Centro,RUA SÃO SEBASTIÃO,Sala,1795,,40,,1,,,1089,,,303,0,40,0
L,Comercial,CENTRO,Avenida São Carlos,Salão,2123,,250,,2,,,3890,,,349,0,75,110
L,Apartamentos,Jardim Tangará,Rua Antônio Micucci,Kitnet,42,,35,1,1,,1,450,,,823,0,35,10
L,Apartamentos,Jardim Tangará,Rua Antônio Micucci,Kitnet,42,,35,1,1,,1,450,-22.0176,-47.85455,683,0,35,11
L,Apartamentos,Jardim Tangará,Rua Antônio Micucci,Kitnet,42,,35,1,1,,1,450,,,362,0,35,11.07
L,Comercial,Vila Monteiro (Gleba I),Rua São Joaquim,Prédio,1233,,330,,4,,,7778,,,244,0,,600
L,Comercial,Jardim Brasil,Rua Totó Leite,Ponto,711,,120,,1,,,1650,-22.02275,-47.87995,469,0,120,40.91
L,Comercial,Centreville,Rua Bento Carlos,Salão,469,,40,,1,,,800,,,257,0,40,62
SL,Terreno,Vila Prado,Rua Antônio Botelho,Comercial,486,,400,,,,,2778,-22.02833,-47.89869,439,0,,0
SL,Comercial,Vila Monteiro (Gleba I),Rua Dona Alexandrina,Prédio,876,,500,,4,,,8778,,,227,0,500,0
SL,Casas,Cidade Jardim,Avenida das Gardênias,Sobrado,251,185,180,4,3,4,6,2056,-21.9993,-47.8936,590,0,,80
SL,Casas,Vila Monteiro (Gleba I),Rua São Joaquim,Comercial,958,200,250,3,2,1,3,2778,,,680,0,,195
L,Casas,CENTRO,Rua Aquidaban,Comercial,778,120,200,3,2,,3,3929,,,677,0,,90
L,Casas,Cidade Jardim,RUA DOS CRAVOS,Kitnet,706,,35,1,1,,1,723,-21.99582,-47.89429,670,0,,0
L,Apartamentos,Vila Monteiro (Gleba I),Rua Dona Alexandrina,Padrão,1779,,200.68,3,2,2,4,3112,,,923,0,200.68,220
L,Casas,Vila Prado,Avenida Sallum,Comercial,1359,600,600,3,1,2,3,7000,,,180,0,,250
L,Comercial,CENTRO,Avenida São Carlos,Barracão,929,,517,,1,3,,6112,,,410,0,316.27,435
SL,Comercial,Jardim São Carlos,Rua Conde do Pinhal,Salão,2417,,90,,1,,,2000,-22.01764,-47.89801,895,0,90,40
SL,Comercial,Jardim Brasil,Rua Eugênio Franco de Camargo,Sobrado,1294,,230,3,2,2,4,4000,,,289,0,,0
SL,Casas,Jardim Brasil,Rua Eugênio Franco de Camargo,Padrão,2002,220,530,3,3,5,4,4000,,,698,0,,200
SL,Apartamentos,Jardim Gibertoni,Rua Porceno Marino,Padrão,115,,55.53,1,1,1,1,1000,-22.0195,-47.90883,1441,0,55.53,39
L,Casas,Jardim Nossa Senhora Aparecida,Rua José Meirelles,Padrão,231,90,200,2,1,2,2,1667,,,446,0,,
L,Comercial,Jardim São Carlos,Rua Jesuíno de Arruda,Salão,2445,,72,,2,,,1800,,,322,0,72,0
L,Apartamentos,Jardim Jóckei Club A,Rua Ray Wesley Herrick,Garagem,475,,50,2,1,1,2,1556,,,272,0,50,
L,Apartamentos,Jardim Alvorada,Rua Flauzino Marques,Padrão,439,,48,2,1,1,2,2300,,,806,0,48,0
L,Casas,Residencial Vida Nova,João Alberto  dos Santos,Padrão,215,70,200,2,1,2,2,770,,,1811,0,,13
SL,Casas,Centreville,Rua Bento Carlos,Padrão,862,362,521,3,2,4,4,4501,,,491,0,,334.4
L,Comercial,Jardim Bandeirantes,Rua Miguel Petroni,Salão,1667,,144,,2,,,2223,,,97,0,144,125
SL,Casas,Cidade Aracy,Rua Miguel Rodrigues,Sobrado,183,120,140,2,2,2,4,1112,,,672,0,,27.67
L,Casas,Parque Santa Mônica,Rua Quinze de Novembro,Padrão,2579,180,300,2,3,4,4,3334,,,388,0,,200.31
SL,Comercial,Jardim Cruzeiro do Sul,Rua Allan Kardec,Barracão,1170,,260,,2,,,3888,,,607,0,260,245
L,Apartamentos,SANTA FELICIA,Rua Ambrósio dos Santos,Kitnet,647,,30,1,1,1,1,700,-22.0078929,-47.9153197,708,0,30,39
SL,Casas,Jardim Paraíso,Rua Princesa Isabel,Comercial,79,250,330,4,4,2,6,4500,,,742,0,,0
SL,Casas,Vila Monteiro (Gleba I),Rua Campos Salles,Sobrado,2175,400,650,4,4,2,5,5556,,,510,0,,0
L,Comercial,Cidade Aracy,Rua Aparecido Pandolfelli,Salão,289,,100,,1,,,1112,,,280,0,100,0
L,Apartamentos,CENTRO,Rua Sete de Setembro,Padrão,1320,,60,2,1,1,2,1112,,,1041,0,60,98
L,Apartamentos,CENTRO,Rua Marechal Deodoro,Padrão,2632,,35,1,1,,1,600,,,288,0,35,30
SL,Comercial,CENTRO,Rua Marechal Deodoro,Prédio,2318,,401.85,,2,10,,10000,-22.01513,-47.88795,316,0,377.33,0
L,Comercial,MARIA STELLA FAGA,Avenida João de Lourenço,Barracão,425,,150,,1,,,1778,,,79,0,150,
L,Comercial,Vila Prado,Avenida Teixeira de Barros,Salão,805,,25,,1,,,1100,-22.02832,-47.89673,285,0,25,
L,Apartamentos,CENTRO,Rua Padre Teixeira,Padrão,1667,,80,3,3,2,4,3030,,,168,0,80,
L,Apartamentos,Recreio São Judas Tadeu,Avenida Gregório Aversa,Padrão,325,,48,2,1,1,2,723,-22.03305,-47.86829,172,1,48,18
L,Terreno,Centro,Avenida São Carlos,Comercial,657,,500,,,,,4445,,,231,0,,200
